,Bedrooms,Bathrooms,Address,Land area,CV,Latitude,Longitude,SA1,0-19 years,20-29 years,30-39 years,40-49 years,50-59 years,60+ years,Suburbs,Population,NZDep2018
0,5,3.0,"106 Lawrence Crescent Hill Park, Auckland",714.0,960000,-37.0129205,174.90406940000003,7009770,48,27,24,21,24,21,Manurewa,174,6.0
1,5,3.0,"8 Corsica Way Karaka, Auckland",564.0,1250000,-37.0636724,174.9229121,7009991,42,18,12,21,15,30,Karaka,129,1.0
2,6,4.0,"243 Harbourside Drive Karaka, Auckland",626.0,1250000,-37.063579700000005,174.9240444,7009991,42,18,12,21,15,30,Karaka,129,1.0
3,2,1.0,"2/30 Hardington Street Onehunga, Auckland",65.0,740000,-36.9129964,174.78742490000002,7007871,42,6,21,21,12,15,Onehunga,120,2.0
4,3,1.0,"59 Israel Avenue Clover Park, Auckland",601.0,630000,-36.979036900000004,174.8926119,7008902,93,27,33,30,21,33,Clover Park,231,9.0
5,3,1.0,"14 Tainui Terrace Mangere Bridge, Auckland",100.0,1050000,-36.943928899999996,174.78050149999999,7007917,63,15,24,33,30,39,Mangere Bridge,195,4.0
6,3,1.0,"54 Kelmarna Avenue Ponsonby, Auckland",531.0,2525000,-36.849238899999996,174.73445130000002,7004908,33,12,18,12,15,9,Ponsonby,102,4.0
7,3,2.0,"39 Rawhiti Road One Tree Hill, Auckland",1024.0,1400000,-36.9077,174.7960425,7005903,36,33,39,21,12,24,One Tree Hill,162,4.0
8,3,2.0,"17b Tawa Crescent Manurewa, Auckland",80.0,475000,-37.033322399999996,174.89811310000002,7009808,45,27,15,12,12,12,Manurewa,126,10.0
9,4,2.0,"39a Keegan Drive Massey, Auckland",204.0,660000,-36.8462083,174.62079440000002,7003826,30,27,36,15,24,12,Massey,141,6.0
10,4,2.0,"39c Keegan Drive Massey, Auckland",170.0,900000,-36.8462083,174.62079440000002,7003826,30,27,36,15,24,12,Massey,141,6.0
11,4,2.0,"39b Keegan Drive Massey, Auckland",170.0,660000,-36.8462083,174.62079440000002,7003826,30,27,36,15,24,12,Massey,141,6.0
12,3,1.0,"9 Menear Lane Hillcrest, Auckland",637.0,920000,-36.7925353,174.7272634,7002805,42,33,36,30,24,24,Hillcrest,189,2.0
13,3,1.0,"10 Fairlight Place Manurewa, Auckland",640.0,570000,-37.0251198,174.87963100000002,7009565,69,33,24,21,15,9,Manurewa,171,10.0
14,4,2.0,"11 Arran Drive Millwater, Auckland",650.0,1150000,-36.9040755,174.69425690000003,7004424,54,45,33,18,18,6,Avondale,174,9.0
15,3,1.0,"53a Kimber Hall Avenue Mount Roskill, Auckland",138.0,1200000,-36.9184475,174.7177085,7007562,51,36,30,18,18,36,Mount Roskill,183,9.0
16,2,1.0,"1/77 Kimber Hall Avenue Mount Roskill, Auckland",75.0,640000,-36.9185162,174.7192568,7007562,51,36,30,18,18,36,Mount Roskill,183,9.0
17,5,3.0,"42 Johns Creek Crescent Silverdale, Auckland",724.0,640000,-36.621938899999996,174.6639437,7001422,51,54,66,24,9,12,Silverdale,219,2.0
18,5,3.0,"4 Ahorangi Road Silverdale, Auckland",429.0,1180000,-36.6233277,174.66401430000002,7001422,51,54,66,24,9,12,Silverdale,219,2.0
19,5,3.0,"32 Johns Creek Crescent Silverdale, Auckland",520.0,590000,-36.621938899999996,174.6639437,7001422,51,54,66,24,9,12,Silverdale,219,2.0
20,3,1.0,"577 Mt Albert Road Royal Oak, Auckland",1381.0,2080000,-36.910598,174.7633054,7007751,27,36,24,18,12,9,Royal Oak,135,7.0
21,5,4.0,"109 Aberley Road Schnapper Rock, Auckland",732.0,1800000,-36.7506011,174.67955849999998,7002324,63,27,24,51,30,18,Schnapper Rock,213,1.0
22,4,2.0,"19 Kenley Place Avondale, Auckland",799.0,1145000,-36.8896501,174.67460690000001,7004268,48,24,30,24,18,27,Avondale,162,6.0
23,3,1.0,"27 Stottholm Road Titirangi, Auckland",1105.0,920000,-36.9284876,174.6694885,7007391,72,21,30,33,27,15,Titirangi,198,6.0
24,3,1.0,"71 First Avenue Kingsland, Auckland",463.0,1500000,-36.8721796,174.7386307,7004956,21,33,18,24,21,12,Kingsland,132,5.0
25,3,2.0,"17 Dalwhinnie Parade Highland Park, Auckland",681.0,1100000,-36.9014454,174.915807,7006932,12,12,15,12,15,24,Highland Park,90,3.0
26,3,2.0,"24a Roberts Road Matakatia Bay, Auckland",4068.0,710000,-36.6192234,174.7798928,7001678,51,18,15,27,36,42,Matakatia,189,1.0
27,2,1.0,"72 Stonefields Avenue Stonefields, Auckland",106.0,1020000,-36.887909,174.8432822,7006356,45,18,42,51,18,42,Stonefields,213,3.0
28,3,1.0,"62 Richardson Road Mount Albert, Auckland",713.0,1150000,-36.8924701,174.71401530000003,7004636,51,39,15,21,45,33,Mount Albert,198,1.0
29,3,2.0,"47b Comins Crescent Mission Bay, Auckland",211.0,1600000,-36.8540672,174.8347488,7006277,24,18,27,24,18,51,Mission Bay,168,3.0
30,3,2.0,"26 Fairholme Avenue Epsom, Auckland",402.0,1280000,-36.9031776,174.7684391,7005632,30,24,18,15,15,30,Epsom,132,2.0
31,3,1.0,"24 Fairholme Avenue Epsom, Auckland",883.0,2150000,-36.9033021,174.7686074,7005632,30,24,18,15,15,30,Epsom,132,2.0
32,5,3.0,"4 Fairholme Avenue Epsom, Auckland",883.0,2425000,-36.903732399999996,174.77070469999998,7005632,30,24,18,15,15,30,Epsom,132,2.0
33,4,3.0,"4 Fairholme Avenue, Auckland",883.0,2425000,-36.903732399999996,174.77070469999998,7005632,30,24,18,15,15,30,Epsom,132,2.0
34,4,1.0,"7 Rata Place Pukekohe, Auckland",675.0,435000,-37.1914653,174.8967586,7010341,96,36,24,24,12,9,Pukekohe,204,10.0
35,4,3.0,"19b Hendry Avenue Hillsborough, Auckland",388.0,1300000,-36.9191013,174.7602332,7007766,51,48,33,30,18,12,Hillsborough,189,6.0
36,3,2.0,"28 Tiraumea Drive Pakuranga, Auckland",1034.0,1120000,-36.9176375,174.86966619999998,7008696,90,48,51,27,36,36,Pakuranga,282,9.0
37,3,1.0,"47 Frank Street Oneroa, Auckland",1295.0,850000,-36.7850631,175.0278712,7003352,30,12,9,15,18,33,Oneroa,123,6.0
38,3,2.0,"52a Sunnyside Road Sunnyvale, Auckland",1102.0,930000,-36.8970908,174.6382264,7004023,51,15,24,21,12,24,Sunnyvale,153,9.0
39,3,2.0,"21 Capriana Drive Karaka, Auckland",551.0,1025000,-37.0639294,174.9194913,7009992,51,21,30,21,18,36,Karaka,177,2.0
40,3,1.0,"21 Overton Road Papatoetoe, Auckland",809.0,930000,-36.9710412,174.8693896,7008633,54,42,39,21,27,36,Papatoetoe,225,9.0
41,2,1.0,"1a Herd Road Hillsborough, Auckland",1108.0,1225000,-36.916308,174.7598366,7007765,39,39,30,24,24,33,Hillsborough,189,3.0
42,6,3.0,"45 Kensington Terrace Gulf Harbour, Auckland",745.0,1100000,-36.6089222,174.785329,7001675,75,12,30,51,24,42,Gulf Harbour,234,1.0
43,5,3.0,"15 Harapaki Road Meadowbank, Auckland",613.0,1925000,-36.870046200000004,174.8251511,7006190,69,12,42,45,18,18,Meadowbank,201,1.0
44,3,1.0,"25c Pleasant Street Onehunga, Auckland",758.0,990000,-36.9198143,174.77225280000002,7007820,33,9,18,21,21,6,Onehunga,114,2.0
45,4,2.0,"40 Rushgreen Avenue Pahurehure, Auckland",727.0,920000,-37.0648902,174.9286899,7009998,48,21,18,18,39,33,Pahurehure,174,1.0
46,2,1.0,"A/18a Holly Street Avondale, Auckland",59.0,600000,-36.8900779,174.69238700000002,7004387,57,42,33,21,21,21,Avondale,195,8.0
47,4,2.0,"26A Holly Street, Auckland",260.0,1025000,-36.8896313,174.69248480000002,7004387,57,42,33,21,21,21,Avondale,195,8.0
48,3,2.0,"21b Marr Road Manurewa, Auckland",126.0,630000,-37.0152515,174.88048799999999,7009541,60,36,30,9,18,6,Manurewa,162,10.0
49,3,1.0,"13 Sandringham Road Mount Eden, Auckland",615.0,1575000,-36.8727657,174.7460271,7005166,27,75,33,24,15,18,Mount Eden,189,6.0
50,4,2.0,"40 Goodwood Drive Goodwood Heights, Auckland",756.0,1050000,-36.9931422,174.9036367,7009731,75,45,42,27,39,66,Goodwood Heights,288,4.0
51,4,1.0,"50 Arthur Street Manurewa, Auckland",3609.0,1380000,-37.0172546,174.90741519999997,7009861,63,27,39,30,6,24,Manurewa,189,6.0
52,3,2.0,"3 Manuka Road Oneroa, Auckland",809.0,830000,-36.7867738,175.01150239999998,7003341,18,6,9,21,21,42,Oneroa,132,4.0
53,3,1.0,"160 Gowing Drive Meadowbank, Auckland",431.0,940000,-36.8688531,174.8403044,7006318,48,45,27,30,27,21,Meadowbank,201,2.0
54,4,2.0,"4 Helios Place Titirangi, Auckland",3648.0,1520000,-36.9507221,174.64134030000002,7007223,51,21,15,39,27,27,Titirangi,180,2.0
55,4,3.0,"1 Landing Road Titirangi, Auckland",3177.0,1400000,-36.9499586,174.64297019999998,7007223,51,21,15,39,27,27,Titirangi,180,2.0
56,5,3.0,"29b Rukutai Street Orakei, Auckland",545.0,1725000,-36.8581658,174.8281687,7006178,39,39,33,24,27,27,Orakei,189,4.0
57,4,2.0,"44 Godden Crescent, Auckland",420.0,2150000,-36.8587685,174.8284616,7006178,39,39,33,24,27,27,Mission Bay,189,4.0
58,3,2.0,"20 Eversleigh Road Belmont, Auckland",481.0,1325000,-36.8022939,174.78551330000002,7003315,36,9,12,18,21,12,Belmont,105,2.0
59,3,1.0,"34a Ascot Avenue Remuera, Auckland",279.0,1220000,-36.8839242,174.80260249999998,7005999,27,21,15,21,18,24,Remuera,120,4.0
60,3,1.0,"2/4 Nerissa Place Randwick Park, Auckland",120.0,630000,-37.0230935,174.9208854,7009958,54,21,21,15,9,9,Randwick Park,126,10.0
61,4,2.0,"31 Rapallo Place Farm Cove, Auckland",1037.0,1400000,-36.8949914,174.8937769,7006737,54,21,30,27,21,24,Farm Cove,180,4.0
62,4,3.0,"37b Kelvin Road Remuera, Auckland",202.0,1340000,-36.8763644,174.8190155,7006075,54,12,27,30,24,45,Remuera,189,3.0
63,4,2.0,"46 Waiatarua Road Remuera, Auckland",1031.0,2450000,-36.8762123,174.8199745,7006075,54,12,27,30,24,45,Remuera,189,3.0
64,4,2.0,"46 Waiatarua Road Remuera, Auckland",1031.0,2450000,-36.8762123,174.8199745,7006075,54,12,27,30,24,45,Remuera,189,3.0
65,3,1.0,"6 Dorendia Place Clendon Park, Auckland",602.0,530000,-37.0252348,174.8630015,7009471,105,48,42,27,30,12,Clendon Park,267,10.0
66,4,2.0,"63 John Street Pukekohe, Auckland",810.0,730000,-37.213396200000005,174.9054744,7010539,48,15,12,27,27,36,Pukekohe,168,2.0
67,3,1.0,"70 Rimu Street New Lynn, Auckland",475.0,810000,-36.903786,174.6686326,7004296,30,21,27,24,12,21,New Lynn,138,6.0
68,3,1.0,"52 Easton Park Parade Glenfield, Auckland",736.0,1170000,-36.7780575,174.7153418,7002617,45,42,30,18,15,30,Glenfield,174,4.0
69,3,1.0,"7a Eulogy Place Randwick Park, Auckland",110.0,540000,-37.0289075,174.9155234,7009880,54,18,18,18,9,6,Randwick Park,123,10.0
70,4,1.0,"6/25 Solveig Place Randwick Park, Auckland",99.0,485000,-37.02979929999999,174.911026,7009882,93,66,39,24,18,9,Randwick Park,243,10.0
71,3,2.0,"2/13a Easter Parade Glen Eden, Auckland",153.0,790000,-36.9208765,174.6304169,7007125,72,24,30,33,33,51,Glen Eden,234,3.0
72,5,3.0,"5a Abbotts Way Remuera, Auckland",245.0,1240000,-36.8888684,174.8125681,7006106,57,42,45,42,9,30,Remuera,228,2.0
73,4,1.0,"4 Marua Road, Auckland",2567.0,2725000,-36.889369,174.813201,7006106,57,42,45,42,9,30,Ellerslie,228,2.0
74,3,1.0,"966 Kaipara Flats Road Kaipara Flats, Auckland",1500.0,680000,-36.406573200000004,174.5450829,7001269,54,9,18,30,30,33,Kaipara Flats,168,4.0
75,3,2.0,"37 Jaemont Avenue Te Atatu South, Auckland",885.0,860000,-36.8646972,174.6521841,7004112,33,30,15,33,27,21,Te Atatu South,162,7.0
76,4,3.0,"10 Sussex Street Grey Lynn, Auckland",480.0,2275000,-36.8625187,174.7474227,7005129,21,30,27,24,18,21,Grey Lynn,147,3.0
77,4,2.0,"50b Camp Road Mount Wellington, Auckland",377.0,850000,-36.9314956,174.8467009,7008343,51,57,42,27,30,39,Mount Wellington,234,7.0
78,3,1.0,"68 Walters Road Mount Wellington, Auckland",688.0,780000,-36.931371,174.8475282,7008343,51,57,42,27,30,39,Mount Wellington,234,7.0
79,6,3.0,"32 Red Hills Road Massey, Auckland",10557.0,1945000,-36.8395657,174.5907986,7003463,42,24,15,30,27,33,Massey,180,5.0
80,2,1.0,"41 Ballarat Street Ellerslie, Auckland",405.0,1000000,-36.895017100000004,174.8242295,7006236,42,15,48,39,12,24,Ellerslie,186,4.0
81,3,2.0,"17a Foxlaw Street Randwick Park, Auckland",561.0,710000,-37.0223681,174.92095319999999,7009955,87,24,33,39,21,27,Randwick Park,231,8.0
82,4,2.0,"30 Kuaka Drive Takanini, Auckland",255.0,810000,-37.0414044,174.9349884,7010021,75,72,66,33,15,15,Takanini,276,3.0
83,5,3.0,"144 Arran Point Parade Orewa, Auckland",519.0,540000,-36.5930625,174.6780098,7001409,0,0,0,0,0,0,Orewa,18,7.0
84,4,2.0,"106 Godfrey Drive Orewa, Auckland",650.0,590000,-36.590886499999996,174.66932,7001409,0,0,0,0,0,0,Orewa,18,7.0
85,4,2.0,"135 Godfrey Drive Orewa, Auckland",602.0,1075000,-36.590886499999996,174.66932,7001409,0,0,0,0,0,0,Orewa,18,7.0
86,5,3.0,"17 Davey Crescent Orewa, Auckland",650.0,1250000,-36.5903256,174.6681286,7001409,0,0,0,0,0,0,Orewa,18,7.0
87,5,3.0,"32 Cassidy Drive Orewa, Auckland",519.0,1225000,-36.5937888,174.6739169,7001409,0,0,0,0,0,0,Orewa,18,7.0
88,5,3.0,"130 Arran Point Parade Orewa, Auckland",522.0,540000,-36.5930625,174.6780098,7001409,0,0,0,0,0,0,Orewa,18,7.0
89,5,3.0,"7 Maka Terrace Orewa, Auckland",651.0,1260000,-36.5936147,174.67732469999999,7001409,0,0,0,0,0,0,Orewa,18,7.0
90,4,2.0,"111 Godfrey Drive Orewa, Auckland",559.0,1050000,-36.590886499999996,174.66932,7001409,0,0,0,0,0,0,Orewa,18,7.0
91,5,3.0,"16 Gospel Heights (arrowsmith Dr) Flat Bush, Auckland",420.0,1200000,-36.9861529,174.9072372,7009106,45,48,30,18,24,24,Flat Bush,192,2.0
92,3,2.0,"25 Porter Crescent Helensville, Auckland",472.0,720000,-36.677469200000004,174.4522649,7001739,33,24,9,15,24,48,Helensville,150,7.0
93,3,1.0,"14 Stainton Place Otara, Auckland",1067.0,580000,-36.9563698,174.8892654,7008844,45,27,12,15,15,15,Otara,132,10.0
94,3,1.0,"20 Blampied Road Otara, Auckland",726.0,570000,-36.955804799999996,174.8879416,7008844,45,27,12,15,15,15,Otara,132,10.0
95,3,2.0,"627b Manukau Road Epsom, Auckland",251.0,1300000,-36.9047954,174.7739675,7007786,21,15,18,12,18,18,Epsom,108,4.0
96,5,2.0,"1/43 Shanaway Rise Hillcrest, Auckland",220.0,1225000,-36.800166299999994,174.7338294,7002953,42,33,21,21,6,18,Hillcrest,141,5.0
97,5,3.0,"18 Coolaghy Drive Flat Bush, Auckland",420.0,1250000,-36.971777100000004,174.918647,7009239,39,21,30,18,9,12,Flat Bush,129,3.0
98,4,2.0,"30 Glenelg Road Red Beach, Auckland",1467.0,970000,-36.6109852,174.7127236,7001568,24,12,15,12,18,42,Red Beach,132,4.0
99,4,1.0,"40 Freeland Avenue Mount Roskill, Auckland",701.0,1000000,-36.915799799999995,174.73439419999997,7007615,42,33,24,18,12,21,Mount Roskill,150,9.0
100,4,2.0,"121 Harbourside Drive Karaka, Auckland",826.0,980000,-37.0678773,174.9257112,7009995,60,21,48,39,27,30,Karaka,219,1.0
101,4,2.0,"157 Harbourside Drive Karaka, Auckland",743.0,990000,-37.0650699,174.92475890000003,7009995,60,21,48,39,27,30,Karaka,219,1.0
102,3,1.0,"56a Orion Street Papakura, Auckland",272.0,680000,-37.07187879999999,174.9563186,7010203,99,48,30,21,24,15,Papakura,240,10.0
103,6,2.0,"58a Coxhead Road Manurewa, Auckland",672.0,1030000,-37.031105100000005,174.89252319999997,7009684,57,51,18,15,21,15,Manurewa,183,9.0
104,3,2.0,"31 West Lynn Road Titirangi, Auckland",772.0,920000,-36.921876700000006,174.6646886,7007317,57,15,24,27,30,36,Titirangi,183,4.0
105,3,1.0,"79 Wellington Street Pukekohe, Auckland",318.0,600000,-37.2096583,174.8966255,7010504,45,42,18,33,27,33,Pukekohe,201,7.0
106,4,2.0,"28 Weldene Avenue Glenfield, Auckland",895.0,920000,-36.774209899999995,174.72523030000002,7002758,18,18,18,15,12,24,Glenfield,99,6.0
107,9,5.0,"54 Central Avenue Papatoetoe, Auckland",2028.0,1350000,-36.975488299999995,174.8644449,7008648,39,27,21,15,21,21,Papatoetoe,147,9.0
108,3,1.0,"199 Balmoral Road Mount Eden, Auckland",371.0,900000,-36.8864339,174.74586090000003,7005199,57,33,36,30,18,15,Mount Eden,186,6.0
109,2,2.0,"312-1 Kimiora Street Three Kings, Auckland",93.0,920000,-36.904282200000004,174.7588224,7005473,0,12,0,0,0,0,Three Kings,30,7.0
110,3,2.0,"34 Kimiora Street Three Kings, Auckland",286.0,1340000,-36.9036375,174.75841880000002,7005473,0,12,0,0,0,0,Three Kings,30,7.0
111,3,1.0,"6 Larch Street Avondale, Auckland",429.0,850000,-36.900007099999996,174.6938496,7004415,33,27,30,15,21,21,Avondale,153,6.0
112,3,1.0,"58 Arodella Crescent Ranui, Auckland",623.0,630000,-36.8574435,174.60012680000003,7003539,60,30,18,15,15,27,Ranui,171,10.0
113,6,2.0,"264 Sunset Road Sunnynook, Auckland",479.0,1325000,-36.7502525,174.7350724,7002875,51,48,45,27,30,24,Windsor Park,222,4.0
114,3,2.0,"53a Landscape Road Mount Eden, Auckland",113.0,1140000,-36.898097799999995,174.75660459999997,7005463,30,72,24,18,21,15,Mount Eden,174,5.0
115,4,2.0,"15a Forrest Hill Road Milford, Auckland",469.0,1745000,-36.7781846,174.7508405,7003086,63,36,42,30,30,18,Milford,216,4.0
116,3,1.0,"35 Grand View Road Leigh, Auckland",898.0,740000,-36.2986271,174.79864840000002,7001158,18,6,9,12,27,48,Leigh,117,5.0
117,3,2.0,"10 Barrister Avenue Mount Roskill, Auckland",370.0,1120000,-36.906797999999995,174.7543779,7005250,63,18,21,12,6,18,Mount Roskill,129,10.0
118,3,2.0,"4/61 Birdwood Avenue Papatoetoe, Auckland",120.0,580000,-36.9779943,174.8681825,7008656,42,42,30,24,21,21,Papatoetoe,186,7.0
119,3,1.0,"66d Woodglen Road Glen Eden, Auckland",422.0,670000,-36.915067,174.6456471,7007252,48,9,15,30,12,21,Glen Eden,144,6.0
120,4,3.0,"68 Glen Marine Parade Glendene, Auckland",868.0,800000,-36.8820848,174.6567039,7004220,45,27,33,24,15,30,Glendene,180,8.0
121,3,1.0,"7 Le Havre Place Takanini, Auckland",880.0,580000,-37.039314000000005,174.92106299999998,7009970,33,51,24,15,12,24,Takanini,150,9.0
122,4,2.0,"152 Grey Street Onehunga, Auckland",690.0,1175000,-36.9175628,174.7935673,7007983,66,33,48,36,27,33,Onehunga,237,5.0
123,4,3.0,"1 Taupinga Way Takanini, Auckland",238.0,800000,-37.0443323,174.927343,7010024,60,66,72,27,21,9,Takanini,249,3.0
124,4,2.0,"60 Hill Street Onehunga, Auckland",569.0,1325000,-36.920718,174.78031869999998,7007906,21,21,15,18,27,27,Onehunga,132,8.0
125,4,2.0,"181 Drury Hills Road Drury, Auckland",8000.0,1510000,-37.116236900000004,174.978964,7010270,39,27,18,27,45,69,Drury,219,1.0
126,4,3.0,"115 Macwhinney Drive Drury, Auckland",8129.0,1620000,-37.1206153,174.9833398,7010270,39,27,18,27,45,69,Drury,219,1.0
127,3,1.0,"34 Queensway Three Kings, Auckland",447.0,1360000,-36.9069089,174.76022849999998,7005474,51,36,18,24,27,36,Three Kings,189,4.0
128,4,2.0,"7 Caram Place Birkenhead, Auckland",744.0,920000,-36.807162,174.71120390000002,7002670,36,15,30,21,21,3,Birkenhead,129,2.0
129,3,1.0,"5 Charlotte Street Stanmore Bay, Auckland",630.0,870000,-36.6246599,174.7297045,7001611,72,27,18,30,33,30,Stanmore Bay,213,4.0
130,3,1.0,"275 Puhinui Road Papatoetoe, Auckland",415.0,660000,-36.991306200000004,174.84849640000002,7009392,45,45,30,21,18,24,Papatoetoe,183,8.0
131,3,1.0,"1/25 Abraham Place St Johns, Auckland",93.0,850000,-36.8736688,174.8480004,7006441,36,27,42,21,6,15,Saint Johns,147,6.0
132,3,2.0,"35 Birkdale Road Birkdale, Auckland",804.0,1050000,-36.8046583,174.7047238,7002550,30,36,33,21,24,18,Birkdale,162,3.0
133,2,1.0,"51 Clarence Street Ponsonby, Auckland",323.0,1625000,-36.8481167,174.73943,7004881,39,33,27,33,33,21,Ponsonby,186,5.0
134,3,2.0,"3 Fallsbrook Lane Mangere Bridge, Auckland",810.0,1625000,-36.9469952,174.77865680000002,7007923,39,18,36,18,24,51,Mangere Bridge,189,4.0
135,3,2.0,"34 Parry Road Mount Wellington, Auckland",728.0,910000,-36.933223100000006,174.84677019999998,7008462,15,30,21,12,9,15,Mount Wellington,93,8.0
136,4,3.0,"8 Wawatai Drive Karaka, Auckland",580.0,1175000,-37.0800841,174.9260771,7010002,81,15,51,45,21,36,Karaka,249,1.0
137,2,2.0,"2/18 Cleary Road Panmure, Auckland",140.0,790000,-36.9011618,174.8510364,7006467,21,39,21,12,9,9,Panmure,108,8.0
138,3,2.0,"10 Belmont Place Warkworth, Auckland",606.0,830000,-36.395545299999995,174.6535508,7001213,51,15,27,27,21,30,Warkworth,174,4.0
139,6,4.0,"164 Wade River Road Arkles Bay, Auckland",325.0,1825000,-36.6418176,174.7328175,7001628,24,15,9,9,21,24,Wade Heads,93,1.0
140,4,1.0,"36 Ngapuhi Road Remuera, Auckland",175.0,1775000,-36.876847399999996,174.8147784,7006080,39,6,21,18,27,15,Remuera,123,2.0
141,4,2.0,"5 Gulliver Road Conifer Grove, Auckland",663.0,880000,-37.0465768,174.9117585,7009901,51,39,24,33,45,39,Conifer Grove,231,2.0
142,3,1.0,"117 Settlement Road Papakura, Auckland",422.0,520000,-37.0654435,174.9672078,7010237,99,33,27,33,18,24,Papakura,237,10.0
143,3,1.0,"14 Chantal Place Red Hill, Auckland",582.0,470000,-37.0661128,174.9674898,7010237,99,33,27,33,18,24,Red Hill,237,10.0
144,4,2.0,"104 Joseph Street Flat Bush, Auckland",292.0,800000,-36.986520399999996,174.90794250000002,7009107,36,48,36,9,6,0,Flat Bush,141,4.0
145,3,2.0,"73 Joseph Street Flat Bush, Auckland",144.0,420000,-36.986073100000006,174.90841369999998,7009107,36,48,36,9,6,0,Flat Bush,141,4.0
146,3,2.0,"278 Burtt Road Pukekohe, Auckland",310.0,1250000,-37.1463039,174.929007,7010364,27,6,18,9,15,24,Paerata,96,3.0
147,2,1.0,"43 Tautari Street Orakei, Auckland",849.0,2275000,-36.8569511,174.818547,7006050,42,15,21,27,21,39,Orakei,168,4.0
148,5,3.0,"45 Tautari Street Orakei, Auckland",1032.0,2625000,-36.8568781,174.8186995,7006050,42,15,21,27,21,39,Orakei,168,4.0
149,3,1.0,"2 Kilcar Place Massey, Auckland",446.0,560000,-36.8412486,174.6043601,7003521,48,30,27,27,21,21,Massey,177,8.0
150,4,1.0,"17 Albion Place Papakura, Auckland",951.0,680000,-37.067935399999996,174.9598568,7010199,87,48,27,21,33,18,Papakura,237,9.0
151,3,2.0,"71b Settlement Road Papakura, Auckland",571.0,670000,-37.066514,174.9580746,7010199,87,48,27,21,33,18,Papakura,237,9.0
152,5,3.0,"8 Della Place Conifer Grove, Auckland",877.0,1490000,-37.0516846,174.90614230000003,7009906,36,21,12,30,27,42,Conifer Grove,168,2.0
153,4,2.0,"67 Verran Road Birkenhead, Auckland",809.0,830000,-36.804617799999995,174.71203480000003,7002666,54,36,33,30,15,21,Birkenhead,195,3.0
154,7,2.0,"33 Haslett Street Eden Terrace, Auckland",333.0,1400000,-36.8661486,174.75379180000002,7005141,24,42,21,12,12,15,Eden Terrace,132,3.0
155,3,1.0,"120 Portage Road New Lynn, Auckland",1513.0,1005000,-36.920320000000004,174.6919081,7007481,30,15,15,9,12,6,New Lynn,90,9.0
156,3,2.0,"5/16 Duncan Avenue Te Atatu South, Auckland",528.0,850000,-36.877027399999996,174.640536,7003976,27,18,21,12,6,18,Te Atatu South,102,7.0
157,3,1.0,"11 Tangaroa Street Point England, Auckland",636.0,1040000,-36.8901125,174.8659207,7006581,57,27,18,15,18,12,Point England,147,10.0
158,5,3.0,"10 Kouras Place Flat Bush, Auckland",417.0,1225000,-36.959775,174.93261090000001,7009292,39,12,21,21,15,3,Flat Bush,111,5.0
159,3,2.0,"2/34 Walpole Avenue Manurewa, Auckland",170.0,630000,-37.0146766,174.89846619999997,7009772,51,39,39,27,18,36,Manurewa,210,6.0
160,3,1.0,"4 Sally Crescent Mount Roskill, Auckland",658.0,990000,-36.9094537,174.7238505,7007592,45,45,24,30,18,39,Mount Roskill,201,6.0
161,4,2.0,"61 Otitori Bay Road Titirangi, Auckland",1573.0,825000,-36.9465931,174.6634799,7007342,48,9,15,33,18,21,Titirangi,135,1.0
162,9,4.0,"Glendowie  Auckland City  1071 Glendowie, Auckland",1843.0,2200000,-36.8603096,174.86930180000002,7006635,30,18,3,18,21,12,Glendowie,102,4.0
163,4,2.0,"9 Colchester Avenue Glendowie, Auckland",404.0,2050000,-36.859620899999996,174.8696361,7006635,30,18,3,18,21,12,Glendowie,102,4.0
164,2,1.0,"19 Gwilliam Place Freemans Bay, Auckland",176.0,1500000,-36.8506282,174.7506425,7005093,21,27,21,15,15,48,Freemans Bay,147,3.0
165,3,1.0,"23 Mountain Road Mount Wellington, Auckland",80.0,960000,-36.895639,174.8455024,7006461,27,12,27,24,18,15,Mount Wellington,123,6.0
166,4,2.0,"10 Willoughby Avenue Howick, Auckland",683.0,970000,-36.8976911,174.9135872,7006911,69,24,27,33,12,27,Howick,195,5.0
167,4,3.0,"64 Selman Road Dairy Flat, Auckland",380.0,2525000,-36.6374487,174.6341666,7001771,57,18,27,30,39,54,Dairy Flat,219,3.0
168,3,2.0,"4 Hilltop Street Remuera, Auckland",117.0,1220000,-36.883432299999996,174.81580459999998,7006097,63,30,42,39,24,30,Remuera,219,1.0
169,5,3.0,"60 Fernhill Way Albany, Auckland",555.0,1345000,-36.7233994,174.72007580000002,7001859,48,42,30,21,21,30,Oteha,189,4.0
170,4,3.0,"201b Jervois Road Herne Bay, Auckland",763.0,4700000,-36.8470899,174.7318972,7004701,45,24,15,30,33,39,Herne Bay,189,1.0
171,4,2.0,"8 Balmain Road Birkenhead, Auckland",230.0,1100000,-36.8118318,174.7101814,7004547,60,24,36,36,24,66,Chatswood,249,2.0
172,2,1.0,"37 Bluegrey Avenue Stonefields, Auckland",104.0,1020000,-36.8865576,174.8404341,7006346,27,42,24,21,18,27,Stonefields,162,2.0
173,3,1.0,"20 Zelda Avenue Clover Park, Auckland",600.0,630000,-36.97792020000001,174.8961056,7008964,63,36,24,27,24,30,Clover Park,195,9.0
174,3,2.0,"2/1255 Dominion Rd Ext Mount Roskill, Auckland",166.0,830000,-36.9209207,174.7357439,7007672,81,39,60,30,21,27,Mount Roskill,258,7.0
175,4,2.0,"10 Huahua Crescent Papakura, Auckland",519.0,470000,-37.0493856,174.97289080000002,7010211,123,99,93,39,39,18,Papakura,414,5.0
176,5,3.0,"22 Huahua Crescent Papakura, Auckland",528.0,470000,-37.0502164,174.97293630000001,7010211,123,99,93,39,39,18,Papakura,414,5.0
177,5,3.0,"77 Twin Parks Rise Papakura, Auckland",603.0,480000,-37.049918,174.9724182,7010211,123,99,93,39,39,18,Papakura,414,5.0
178,3,1.0,"41 Rathmar Drive Manurewa, Auckland",439.0,780000,-37.01495739999999,174.91502240000003,7009850,45,24,33,27,36,36,Manurewa,204,4.0
179,3,1.0,"8 Justamere Place Weymouth, Auckland",600.0,530000,-37.042509499999994,174.8673894,7009515,78,33,39,24,30,24,Weymouth,225,10.0
180,3,1.0,"8 Justamere Place Weymouth, Auckland",600.0,530000,-37.042509499999994,174.8673894,7009515,78,33,39,24,30,24,Weymouth,225,10.0
181,3,2.0,"129 Hobsonville Road West Harbour, Auckland",368.0,880000,-36.8152696,174.6288851,7003789,45,30,15,27,24,36,West Harbour,174,4.0
182,3,1.0,"92 Buckville Road Buckland, Auckland",1012.0,2112000,-37.2271956,174.93889099999998,7010971,39,6,9,24,18,36,Buckland,129,3.0
183,4,4.0,"9 Darwin Lane Remuera, Auckland",2718.0,9000000,-36.871836,174.81368899999998,7005974,27,12,6,18,18,36,Remuera,114,1.0
184,4,4.0,"9 Darwin Lane Remuera, Auckland",2718.0,9000000,-36.871836,174.81368899999998,7005974,27,12,6,18,18,36,Remuera,114,1.0
185,4,2.0,"2/73 Speight Road St Heliers, Auckland",191.0,1825000,-36.8534844,174.84930269999998,7006399,48,24,21,30,27,36,St Heliers,186,3.0
186,2,2.0,"21 Skip Lane East Tamaki, Auckland",173.0,590000,-36.94338270000001,174.90154819999998,7008935,24,24,45,15,15,6,East Tamaki,132,6.0
187,3,1.0,"45 Richard Farrell Avenue Remuera, Auckland",1070.0,1875000,-36.886768200000006,174.8134448,7006010,48,15,27,27,12,30,Remuera,153,3.0
188,3,2.0,"279c Royal Road Massey, Auckland",586.0,830000,-36.8324006,174.63285390000001,7003938,84,36,36,42,27,30,Massey,255,9.0
189,4,2.0,"4 Yorkton Rise Mangere Bridge, Auckland",723.0,1460000,-36.9420311,174.76767230000002,7007837,27,9,9,21,15,30,Mangere Bridge,105,1.0
190,2,1.0,"8/42a Park Avenue Papatoetoe, Auckland",90.0,455000,-36.9763865,174.8391374,7008426,54,45,33,18,24,18,Papatoetoe,198,8.0
191,5,2.0,"1/54 Tirimoana Road Te Atatu South, Auckland",260.0,890000,-36.8843686,174.6504321,7004156,60,27,24,30,18,18,Te Atatu South,186,5.0
192,6,3.0,"38 Tirimoana Road Te Atatu South, Auckland",210.0,1000000,-36.8848921,174.64905149999998,7004156,60,27,24,30,18,18,Te Atatu South,186,5.0
193,3,2.0,"2/36 Tarawera Terrace St Heliers, Auckland",138.0,1220000,-36.861919,174.8521385,7006422,45,12,24,33,30,48,St Heliers,189,2.0
194,1,1.0,"29j Springs Road Helensville, Auckland",59.0,325000,-36.657444399999996,174.4331618,7001725,45,18,21,21,24,24,Parakai,153,10.0
195,4,2.0,"1 Beltrees Lane Pokeno, Auckland",846.0,610000,-37.0481046,174.860194,7009434,108,42,39,36,27,33,Weymouth,276,8.0
196,4,2.0,"32 Leicester Parade Somerville, Auckland",1047.0,1470000,-36.9188242,174.9314074,7009263,33,27,15,30,21,42,Somerville,168,2.0
197,5,3.0,"39c Rockfield Road Ellerslie, Auckland",375.0,1400000,-36.90441129999999,174.80423190000002,7006032,72,81,60,36,33,27,Ellerslie,306,8.0
198,3,2.0,"69 Rockfield Road, Auckland",474.0,1250000,-36.905958700000006,174.8045209,7006032,72,81,60,36,33,27,Penrose,306,8.0
199,7,2.0,"10 Roys Road Weymouth, Auckland",2931.0,1600000,-37.0513811,174.861198,7009435,72,42,24,36,33,39,Weymouth,246,9.0
200,3,2.0,"16 Percy Winstone Lane Stonefields, Auckland",261.0,1240000,-36.889430499999996,174.8342189,7006345,66,48,54,33,39,39,Stonefields,273,1.0
201,3,2.0,"16 Percy Winstone Lane Stonefields, Auckland",261.0,1240000,-36.889430499999996,174.8342189,7006345,66,48,54,33,39,39,Stonefields,273,1.0
202,3,1.0,"3 Olsen Avenue Hillsborough, Auckland",462.0,860000,-36.921234000000005,174.7544716,7007731,48,48,33,24,33,36,Hillsborough,222,6.0
203,5,3.0,"163 Orakei Road Remuera, Auckland",701.0,2450000,-36.868096200000004,174.8061183,7005969,45,24,15,27,36,33,Remuera,174,1.0
204,3,2.0,"13 Brinlack Drive Dannemora, Auckland",400.0,880000,-36.938385600000004,174.90999309999998,7009036,42,12,24,21,18,18,East Tamaki,135,5.0
205,4,2.0,"68 Tramway Road Beach Haven, Auckland",550.0,780000,-36.791673200000005,174.6900185,7002447,42,27,36,18,12,12,Beach Haven,147,3.0
206,5,2.0,"24 Moss Crescent Takanini, Auckland",650.0,950000,-37.05305070000001,174.92289350000001,7009985,27,27,18,27,36,45,Takanini,174,2.0
207,4,1.0,"5/10 Rathgar Road Henderson, Auckland",140.0,775000,-36.8690454,174.61978919999999,7003702,42,18,15,27,24,24,Henderson,153,8.0
208,3,2.0,"352l Kohimarama Road Kohimarama, Auckland",137.0,870000,-36.866926299999996,174.8451884,7006419,54,27,21,39,27,45,St Heliers,216,3.0
209,4,1.0,"65 Tirimoana Road Te Atatu South, Auckland",160.0,830000,-36.885174,174.6509948,7004159,66,51,33,24,24,27,Te Atatu South,228,7.0
210,4,2.0,"25b Rangeview Road Sunnyvale, Auckland",922.0,860000,-36.8993074,174.6348866,7004028,102,39,45,36,15,36,Sunnyvale,279,8.0
211,3,2.0,"47c Rangeview Road Sunnyvale, Auckland",114.0,725000,-36.9006722,174.6350647,7004028,102,39,45,36,15,36,Sunnyvale,279,8.0
212,5,3.0,"23 Waikura Drive Te Atatu Peninsula, Auckland",686.0,1735000,-36.8360926,174.66037790000001,7004203,39,27,24,15,27,15,Te Atatu Peninsula,147,1.0
213,3,1.0,"383 West Coast Road Glen Eden, Auckland",1012.0,850000,-36.9085972,174.6380186,7007167,63,36,42,36,27,30,Glen Eden,231,9.0
214,5,3.0,"13 Thistle Close Beachlands, Auckland",470.0,1400000,-36.886992299999996,175.0062139,7007066,60,9,18,48,21,30,Beachlands,180,1.0
215,5,3.0,"21 Thistle Close Beachlands, Auckland",490.0,1350000,-36.88756729999999,175.00612980000002,7007066,60,9,18,48,21,30,Beachlands,180,1.0
216,5,2.0,"81 Ahutoetoe Road Millwater, Auckland",569.0,980000,-36.6122979,174.6567144,7001403,36,12,9,27,15,27,Wainui,129,4.0
217,4,2.0,"45 Kuhanui Drive Karaka, Auckland",550.0,1025000,-37.0779534,174.9188179,7009928,201,99,168,114,81,120,Karaka,789,1.0
218,3,2.0,"43 Costa Viva Crescent Karaka, Auckland",220.0,810000,-37.077566100000006,174.9201295,7009928,201,99,168,114,81,120,Karaka,789,1.0
219,5,3.0,"39 Silvana Drive Flat Bush, Auckland",404.0,1250000,-36.964403499999996,174.927909,7009304,69,42,60,30,24,30,Flat Bush,255,1.0
220,3,1.0,"15 Kirikiri Lane East Tamaki, Auckland",154.0,820000,-36.9337122,174.9080707,7009025,30,18,36,21,12,12,East Tamaki,123,5.0
221,3,1.0,"11 Arodella Crescent Ranui, Auckland",952.0,670000,-36.858717799999994,174.599451,7003540,57,27,30,18,12,15,Ranui,159,9.0
222,4,2.0,"44d Mountain Road Epsom, Auckland",1074.0,3200000,-36.8700679,174.7703548,7005559,33,27,24,9,39,54,Epsom,183,1.0
223,4,2.0,"10 Eyton Kay Road Hobsonville, Auckland",161.0,860000,-36.795950700000006,174.65593,7002301,51,36,57,18,6,12,Hobsonville,174,1.0
224,3,1.0,"268 Jervois Road Herne Bay, Auckland",473.0,2275000,-36.8474028,174.7324135,7004901,57,21,15,30,15,18,Herne Bay,153,4.0
225,4,2.0,"1/1 Woodcote Drive Glenfield, Auckland",170.0,920000,-36.7875914,174.7224742,7002794,39,36,36,18,30,48,Glenfield,198,5.0
226,4,2.0,"109 Blockhouse Bay Road Avondale, Auckland",689.0,1075000,-36.895269299999995,174.7006602,7004406,12,9,12,21,15,48,Avondale,117,8.0
227,3,1.0,"109a Blockhouse Bay Road Avondale, Auckland",348.0,1025000,-36.895269299999995,174.7006602,7004406,12,9,12,21,15,48,Avondale,117,8.0
228,4,2.0,"74 Tarrant Road Waimauku, Auckland",15230.0,1325000,-36.7338896,174.456874,7001370,36,12,9,24,21,18,Helensville,123,2.0
229,4,2.0,"45 Arrowsmith Road Waitakere, Auckland",260.0,1275000,-36.8465434,174.5210115,7003415,24,12,9,21,12,27,Waitakere,111,3.0
230,2,1.0,"14/127 Boundary Road Blockhouse Bay, Auckland",106.0,740000,-36.91975720000001,174.7118763,7007570,0,3,0,3,0,231,Blockhouse Bay,243,7.0
231,5,3.0,"1/134 Aberdeen Road Campbells Bay, Auckland",310.0,1525000,-36.752773299999994,174.7608761,7003148,57,21,27,27,27,27,Campbells Bay,177,2.0
232,3,1.0,"144 Forrest Hill Road Forrest Hill, Auckland",345.0,990000,-36.7663399,174.7477823,7003063,57,48,42,33,24,15,Forrest Hill,219,6.0
233,4,2.0,"9 Vivaldi Place Mount Roskill, Auckland",523.0,1225000,-36.911034,174.7241676,7007593,24,15,12,12,18,33,Mount Roskill,123,4.0
234,3,1.0,"5a Fir Street Waterview, Auckland",616.0,985000,-36.8813662,174.7009228,7004492,42,51,45,33,15,12,Waterview,198,4.0
235,4,2.0,"18 Routly Avenue Pukekohe, Auckland",1012.0,960000,-37.2203656,174.894608,7010519,24,12,9,12,24,27,Pukekohe,108,2.0
236,4,3.0,"35 Pinehurst Place Wattle Downs, Auckland",600.0,820000,-37.0520531,174.8876043,7009719,57,18,30,18,24,39,Wattle Downs,186,6.0
237,3,1.0,"18a Sophora Place Totara Heights, Auckland",120.0,780000,-37.0000106,174.900693,7009752,72,27,42,36,21,36,Totara Heights,231,4.0
238,3,2.0,"7 Antilla Place Half Moon Bay, Auckland",703.0,1380000,-36.887670799999995,174.89325669999997,7006719,54,21,27,36,24,60,Half Moon Bay,216,2.0
239,4,2.0,"5 Knox Road Manurewa, Auckland",984.0,720000,-37.020317,174.9003727,7009781,39,27,21,24,21,21,Manurewa,150,5.0
240,3,2.0,"14a Clyma Place Massey, Auckland",386.0,540000,-36.848476700000006,174.6098376,7003657,36,33,27,15,15,15,Massey,144,9.0
241,4,3.0,"1/103 Remuera Road Remuera, Auckland",222.0,1800000,-36.8736187,174.782018,7005727,18,42,33,9,12,15,Remuera,129,5.0
242,3,2.0,"4/17 Margot Street Epsom, Auckland",170.0,940000,-36.8780671,174.7776435,7005577,21,21,21,9,15,6,Epsom,90,6.0
243,3,2.0,"11 Marie Costello Way Beach Haven, Auckland",400.0,940000,-36.788751700000006,174.69266090000002,7002422,60,18,42,39,24,33,Beach Haven,210,4.0
244,3,2.0,"11 Marie Costello Way Beach Haven, Auckland",400.0,940000,-36.788751700000006,174.69266090000002,7002422,60,18,42,39,24,33,Beach Haven,210,4.0
245,3,1.0,"81a Waiatarua Road Remuera, Auckland",152.0,1160000,-36.8725755,174.8199281,7006072,72,15,33,33,24,48,Remuera,219,1.0
246,3,3.0,"156 Mokoia Road Birkenhead, Auckland",922.0,1650000,-36.8113451,174.71582800000002,7004545,30,30,27,27,24,48,Chatswood,189,6.0
247,4,3.0,"17 Voyager Drive Gulf Harbour, Auckland",428.0,960000,-36.6170889,174.7922216,7001695,60,15,21,33,33,63,Gulf Harbour,225,6.0
248,4,1.0,"95 Shakespear Road Army Bay, Auckland",5088.0,1900000,-36.6083432,174.8071064,7001715,36,6,9,18,33,39,Army Bay,141,1.0
249,4,3.0,"9 Crosshill Court Pokeno, Auckland",523.0,570000,-37.2380653,175.012596,7011028,9,18,12,6,21,18,Pokeno,87,1.0
250,4,2.0,"1 Hua Place Tuakau, Auckland",507.0,850000,-37.257721999999994,174.9388626,7010975,72,27,18,24,27,6,Tuakau,177,8.0
251,2,1.0,"2/519 Pakuranga Road Howick, Auckland",70.0,670000,-36.898975899999996,174.9106721,7006853,33,18,12,12,21,33,Howick,132,7.0
252,3,2.0,"21a Benson Road Remuera, Auckland",167.0,1650000,-36.8728739,174.8072187,7005981,39,12,12,24,21,24,Remuera,123,2.0
253,4,2.0,"7 Condliffe Place New Windsor, Auckland",956.0,990000,-36.902183,174.7117372,7004659,66,60,42,30,24,24,New Windsor,255,7.0
254,3,1.0,"1 Weldene Avenue Glenfield, Auckland",822.0,990000,-36.773546200000006,174.7230032,7002759,27,15,33,15,9,15,Glenfield,117,6.0
255,4,1.0,"48 Burundi Avenue Clendon Park, Auckland",613.0,650000,-37.0279286,174.86182230000003,7009491,96,27,42,15,15,24,Clendon Park,219,10.0
256,2,1.0,"9 Donovan Avenue Massey, Auckland",814.0,750000,-36.8458463,174.60943480000003,7003531,45,36,30,27,18,21,Massey,171,9.0
257,3,1.0,"21 Golf Avenue Otahuhu, Auckland",718.0,650000,-36.954143,174.83870280000002,7008379,66,48,36,30,21,36,Otahuhu,240,10.0
258,3,1.0,"34 Saxon Street Waterview, Auckland",1358.0,1820000,-36.8788108,174.69515019999997,7004376,33,21,33,36,30,21,Waterview,174,2.0
259,2,1.0,"257a Campbell Road Greenlane, Auckland",365.0,1175000,-36.8953984,174.7989407,7005916,30,42,33,12,6,24,Greenlane,141,6.0
260,3,2.0,"5c Gollan Road Mount Wellington, Auckland",314.0,1140000,-36.89394,174.84338449999998,7006363,48,15,30,36,9,21,Mount Wellington,159,5.0
261,4,2.0,"40 Constellation Avenue Beachlands, Auckland",872.0,1245000,-36.8842814,175.0094947,7007062,48,3,15,30,12,9,Beachlands,105,1.0
262,3,2.0,"10 Elizabeth Drive West Harbour, Auckland",388.0,680000,-36.8218485,174.6252384,7003777,39,30,21,15,15,9,West Harbour,129,8.0
263,5,3.0,"139d Long Drive St Heliers, Auckland",416.0,2300000,-36.8603424,174.8532553,7006416,48,12,24,30,18,39,St Heliers,177,3.0
264,4,3.0,"9b Allendale Road Mount Albert, Auckland",254.0,2175000,-36.8846936,174.7175628,7004622,36,21,24,30,18,24,Mount Albert,147,5.0
265,4,3.0,"9c Allendale Road Mount Albert, Auckland",254.0,2775000,-36.8846936,174.7175628,7004622,36,21,24,30,18,24,Mount Albert,147,5.0
266,6,3.0,"34d Arney Crescent Remuera, Auckland",602.0,6400000,-36.8699368,174.78892050000002,7005846,36,6,6,18,21,30,Remuera,129,1.0
267,3,2.0,"5 Gerda Place Ranui, Auckland",742.0,950000,-36.8734548,174.5973287,7003490,36,27,21,24,27,36,Ranui,171,3.0
268,3,2.0,"13b Kelsey Crescent Hillsborough, Auckland",186.0,900000,-36.9201159,174.75969609999999,7007767,78,42,54,36,30,42,Hillsborough,270,5.0
269,4,3.0,"2/7 Ferguson Street Mangere, Auckland",204.0,640000,-36.963376700000005,174.82711930000002,7008282,69,36,15,21,12,15,Mangere East,165,9.0
270,4,3.0,"3/7 Ferguson Street Mangere, Auckland",204.0,640000,-36.963376700000005,174.82711930000002,7008282,69,36,15,21,12,15,Mangere East,165,9.0
271,4,2.0,"71 Roberta Avenue Glendowie, Auckland",902.0,2450000,-36.8686782,174.8757624,7006644,39,15,9,27,30,27,Glendowie,141,2.0
272,3,1.0,"254 West Tamaki Road Glendowie, Auckland",921.0,1600000,-36.8687323,174.87550480000002,7006644,39,15,9,27,30,27,Wai O Taiki Bay,141,2.0
273,3,1.0,"20 Pasadena Avenue Point Chevalier, Auckland",714.0,1450000,-36.866313500000004,174.7172836,7004584,63,21,21,36,33,18,Point Chevalier,189,3.0
274,5,3.0,"121 Kawakawa Bay Coast Road Kawakawa Bay, Auckland",1501.0,1730000,-36.934496700000004,175.1875645,7007094,15,15,3,15,36,33,Kawakawa Bay,120,3.0
275,4,2.0,"44 Searle Drive Patumahoe, Auckland",2566.0,1250000,-37.18291970000001,174.82619509999998,7010325,90,21,63,48,27,48,Patumahoe,291,1.0
276,4,2.0,"2 Mirabell Place Patumahoe, Auckland",695.0,930000,-37.185345299999994,174.82719430000003,7010325,90,21,63,48,27,48,Patumahoe,291,1.0
277,3,1.0,"2/45 Seabrook Avenue New Lynn, Auckland",150.0,710000,-36.915392600000004,174.6740353,7007358,57,42,27,33,24,33,New Lynn,207,8.0
278,4,2.0,"42 Parrish Road Sandringham, Auckland",133.0,1280000,-36.8817233,174.74389299999999,7004990,57,30,15,27,30,15,Sandringham,174,6.0
279,2,1.0,"39 Edenvale Crescent Mount Eden, Auckland",359.0,1400000,-36.871350799999995,174.75929430000002,7005389,30,27,39,21,6,12,Mount Eden,141,6.0
280,4,2.0,"15a Rawhitiroa Road Kohimarama, Auckland",400.0,1800000,-36.85468770000001,174.8386994,7006292,33,6,12,18,21,36,Kohimarama,132,1.0
281,3,2.0,"29 Onetangi Road Onetangi, Auckland",1618.0,1080000,-36.7933277,175.0791116,7003392,39,9,24,21,24,51,Onetangi,171,6.0
282,4,2.0,"65 Matairangi Avenue Totara Heights, Auckland",253.0,720000,-37.001727100000004,174.9036267,7009753,45,33,24,21,30,30,Totara Heights,186,4.0
283,4,2.0,"42 Tawini Road Titirangi, Auckland",2856.0,1270000,-36.931383600000004,174.63750880000003,7007210,54,12,15,30,24,18,Titirangi,153,2.0
284,7,4.0,"407 Ormiston Road Flat Bush, Auckland",399.0,1450000,-36.968270000000004,174.9306696,7009312,126,72,90,51,36,42,Flat Bush,414,5.0
285,4,2.0,"297a Mount Albert Road Sandringham, Auckland",115.0,1000000,-36.9011595,174.7359376,7005056,57,36,30,18,15,24,Wesley,183,9.0
286,3,3.0,"15 Malmo Place Manurewa, Auckland",635.0,710000,-37.020591499999995,174.8684589,7009455,96,39,21,33,15,21,Manurewa,225,10.0
287,4,2.0,"27 Westminster Gardens Unsworth Heights, Auckland",600.0,1055000,-36.759316299999995,174.71186469999998,7002590,66,33,39,27,42,51,Unsworth Heights,255,2.0
288,5,2.0,"13 Rogers Avenue Eastern Beach, Auckland",883.0,1560000,-36.87510579999999,174.91412340000002,7006877,30,15,12,18,39,45,Eastern Beach,162,3.0
289,3,2.0,"59/386 Richmond Road Grey Lynn, Auckland",130.0,720000,-36.8563101,174.730722,7004733,21,39,39,21,21,12,Grey Lynn,156,5.0
290,5,5.0,"62 Manuel Road Silverdale, Auckland",659.0,1750000,-36.6050069,174.6740986,7001456,66,21,21,33,18,18,Silverdale,174,3.0
291,5,4.0,"4 Tawatawa Street Long Bay, Auckland",557.0,1675000,-36.681093100000005,174.73887919999999,7001929,27,12,21,21,12,21,Long Bay,117,2.0
292,5,4.0,"35 Bounty Road Long Bay, Auckland",608.0,2075000,-36.685947600000006,174.7427924,7001929,27,12,21,21,12,21,Long Bay,117,2.0
293,4,1.0,"10 Fisher Street Surfdale, Auckland",862.0,1000000,-36.79001470000001,175.02728390000001,7003355,30,24,15,24,21,24,Surfdale,144,4.0
294,3,1.0,"19 Beresford Avenue Surfdale, Auckland",1055.0,830000,-36.7893761,175.0281423,7003355,30,24,15,24,21,24,Surfdale,144,4.0
295,3,2.0,"29d Kamara Road Glen Eden, Auckland",402.0,710000,-36.9114342,174.6378628,7007169,57,18,36,33,15,18,Glen Eden,174,7.0
296,3,1.0,"16 School Road Kingsland, Auckland",701.0,1425000,-36.8718357,174.7366601,7004963,48,54,51,27,12,12,Morningside,201,5.0
297,3,2.0,"Remuera  Auckland City  1072 Remuera, Auckland",256.0,3275000,-36.8807382,174.7981463,7005843,12,12,6,9,15,33,Remuera,87,1.0
298,3,1.0,"11d Monteith Crescent Remuera, Auckland",285.0,880000,-36.8815435,174.8228154,7006221,36,27,27,24,9,33,Remuera,168,3.0
299,5,4.0,"5 Takurua Terrace Orewa, Auckland",452.0,1175000,-36.580596899999996,174.6722249,7001429,36,6,12,27,18,33,Orewa,141,1.0
300,2,1.0,"1/42b Candia Road Swanson, Auckland",605.0,640000,-36.871876,174.5890894,7003489,66,21,33,27,6,9,Swanson,153,10.0
301,3,1.0,"33 Wairau Avenue Avondale, Auckland",1343.0,1335000,-36.8930616,174.6863771,7004336,66,42,33,27,21,21,Avondale,216,9.0
302,5,3.0,"585 Great South Road Drury, Auckland",766.0,965000,-37.093205600000005,174.9445781,7010149,87,45,57,45,30,45,Rosehill,312,2.0
303,4,1.0,"50 Oraha Road Kumeu, Auckland",1437.0,920000,-36.769887100000005,174.5509508,7002193,30,12,12,18,15,15,Huapai,108,1.0
304,4,2.0,"12 Robert Might Road Huapai, Auckland",702.0,1150000,-36.762716299999994,174.5340476,7002170,84,30,54,36,42,42,Kumeu,291,1.0
305,4,2.0,"40j Konini Road Titirangi, Auckland",451.0,1260000,-36.9270196,174.6492794,7007264,75,18,18,51,33,24,Titirangi,228,1.0
306,2,2.0,"223 Green Lane West Epsom, Auckland",123.0,18000000,-36.8927725,174.77979109999998,7005755,3,9,15,6,15,21,Epsom,60,4.0
307,5,4.0,"12b Walpole Street Ellerslie, Auckland",505.0,1600000,-36.8931018,174.8022017,7006015,33,18,24,30,30,21,Ellerslie,150,7.0
308,4,2.0,"87 Naylors Drive Mangere, Auckland",221.0,720000,-36.982632,174.796744,7008064,123,51,48,27,24,21,Mangere,300,9.0
310,4,2.0,"12 Hea Road Hobsonville, Auckland",191.0,530000,-36.798371200000005,174.64743,7002267,60,66,60,24,24,18,Hobsonville,252,2.0
312,2,1.0,"1/67 Buckland Road Mangere, Auckland",80.0,580000,-36.9718136,174.8320786,7008292,54,30,39,15,27,39,Mangere East,201,8.0
313,3,2.0,"89 Kauri Point Road Laingholm, Auckland",1528.0,770000,-36.9772792,174.63167719999998,7007165,27,3,18,30,15,12,Laingholm,108,2.0
314,1,1.0,"3x/15 Nelson Street Auckland Central, Auckland",54.0,560000,-36.8466718,174.75996809999998,7005288,6,63,60,18,18,18,Auckland Central,183,4.0
315,4,1.0,"768 South Titirangi Road Titirangi, Auckland",2342.0,1360000,-36.9586578,174.6493112,7007292,36,15,9,21,21,33,Titirangi,138,2.0
316,3,1.0,"1103 Scenic Drive North Swanson, Auckland",1884.0,720000,-36.8745465,174.550974,7003426,33,24,15,24,39,36,Swanson,156,4.0
317,4,2.0,"37 Bleakhouse Road Mellons Bay, Auckland",847.0,2000000,-36.891025799999994,174.92200649999998,7006898,45,27,24,24,42,45,Howick,210,2.0
318,5,3.0,"35 Bleakhouse Road Mellons Bay, Auckland",1629.0,2300000,-36.890492,174.9226706,7006898,45,27,24,24,42,45,Howick,210,2.0
319,3,1.0,"20 Oriana Avenue Lynfield, Auckland",293.0,700000,-36.9294147,174.7245278,7007635,66,45,39,30,24,27,Lynfield,222,5.0
320,6,4.0,"44 Hughs Way Flat Bush, Auckland",409.0,1375000,-36.9761204,174.9157279,7009087,117,81,90,60,27,39,Flat Bush,423,2.0
321,4,2.0,"27 Mcculloch Road Panmure, Auckland",650.0,870000,-36.8948354,174.8591483,7006591,21,9,15,3,24,12,Panmure,87,10.0
322,4,2.0,"31 Pine Harbour Parade Beachlands, Auckland",815.0,1425000,-36.885200700000006,174.98930009999998,7007031,57,12,6,45,30,33,Beachlands,177,1.0
323,4,3.0,"1/117 Shelly Beach Road St Marys Bay, Auckland",275.0,1825000,-36.8400283,174.7420513,7004858,12,24,36,15,27,45,Saint Marys Bay,159,2.0
324,3,1.0,"111 Shelly Beach Road, Auckland",1300.0,3600000,-36.8402456,174.7421394,7004858,12,24,36,15,27,45,Saint Marys Bay,159,2.0
325,3,2.0,"556 Great North Road Grey Lynn, Auckland",179.0,1575000,-36.8659995,174.7375053,7004944,30,33,33,18,15,15,Grey Lynn,135,2.0
326,3,1.0,"23/340 Gulf Harbour Drive Gulf Harbour, Auckland",89.0,410000,-36.6143145,174.8032398,7001718,36,21,30,24,21,36,Gulf Harbour,165,8.0
327,4,2.0,"19 Muirlea Drive Flat Bush, Auckland",644.0,1100000,-36.9593057,174.9341799,7009287,108,39,72,69,30,33,Flat Bush,351,2.0
328,5,3.0,"9 Melness Place Flat Bush, Auckland",539.0,1225000,-36.9595355,174.93410569999998,7009287,108,39,72,69,30,33,Flat Bush,351,2.0
329,3,1.0,"161a Don Buck Road Massey, Auckland",451.0,640000,-36.8495702,174.6102219,7003661,57,21,36,21,15,18,Massey,168,7.0
330,3,2.0,"70 Fairclough Road Beach Haven, Auckland",1006.0,870000,-36.7925349,174.6953357,7002430,48,21,24,30,18,21,Beach Haven,168,8.0
331,3,2.0,"40a Glenfern Road Mellons Bay, Auckland",809.0,1325000,-36.8906925,174.93480780000002,7006944,27,9,12,12,12,45,Mellons Bay,117,3.0
332,3,1.0,"2/26 Caravelle Close Mangere, Auckland",80.0,500000,-36.9624846,174.793161,7008027,93,39,18,24,24,24,Mangere,225,10.0
333,3,1.0,"86 Williamson Avenue Grey Lynn, Auckland",556.0,1950000,-36.862159399999996,174.74280919999998,7004935,33,39,39,21,27,9,Grey Lynn,165,4.0
334,5,2.0,"31 Elgin Street Grey Lynn, Auckland",471.0,2075000,-36.8632281,174.7416011,7004935,33,39,39,21,27,9,Grey Lynn,165,4.0
335,4,3.0,"24/21 Birdwood Crescent Parnell, Auckland",195.0,1450000,-36.8589527,174.7800434,7005693,30,51,48,21,15,15,Parnell,180,5.0
336,4,2.0,"2284d Hunua Road Papakura, Auckland",1603.0,740000,-37.0793779,175.0703464,7010283,57,30,24,27,21,39,Hunua,207,3.0
337,4,2.0,"38 Hadley Wood Drive Wattle Downs, Auckland",574.0,1000000,-37.052032000000004,174.87727890000002,7009609,117,36,69,57,51,42,Wattle Downs,381,3.0
338,3,1.0,"1/12 Marewa Street Te Atatu South, Auckland",89.0,420000,-36.8549925,174.643131,7003952,45,30,21,21,18,21,Te Atatu South,156,7.0
339,4,1.0,"4 Paton Avenue Te Atatu South, Auckland",814.0,840000,-36.855803,174.642841,7003952,45,30,21,21,18,21,Te Atatu South,156,7.0
340,3,1.0,"1/9 Marewa Street Te Atatu South, Auckland",90.0,600000,-36.8547334,174.643806,7003952,45,30,21,21,18,21,Te Atatu South,156,7.0
341,3,1.0,"3/56 Watts Road Manurewa, Auckland",80.0,450000,-37.0165899,174.8721467,7009446,75,54,24,27,15,30,Manurewa,228,9.0
342,5,3.0,"6 Maraeariki Avenue Orewa, Auckland",581.0,1100000,-36.5815524,174.6899519,7001488,24,12,9,12,15,36,Orewa,111,7.0
343,2,1.0,"6/723 Remuera Road Remuera, Auckland",79.0,820000,-36.8791334,174.8226494,7006220,33,24,27,30,6,18,Remuera,132,4.0
344,3,1.0,"29 Dewhurst Place Favona, Auckland",360.0,660000,-36.952785,174.803846,7008085,57,24,27,18,21,27,Favona,177,10.0
345,5,2.0,"2 San Luis Place Golflands, Auckland",650.0,1325000,-36.9230544,174.9049592,7009011,39,27,30,21,27,27,Golflands,171,2.0
346,4,2.0,"5 Juliet Avenue Howick, Auckland",675.0,1150000,-36.8975677,174.9186666,7006910,48,33,30,21,24,21,Howick,177,6.0
347,4,3.0,"1/17 Lydia Avenue Northcote, Auckland",150.0,990000,-36.802913700000005,174.73397649999998,7002962,27,15,36,18,15,30,Northcote,147,2.0
348,5,3.0,"12 Camp X Place Whenuapai, Auckland",315.0,1100000,-36.7905871,174.61712250000002,7002238,66,162,63,24,12,21,Whenuapai,351,3.0
349,2,2.0,"4b/15 Fleet Street Eden Terrace, Auckland",103.0,750000,-36.8637961,174.7559946,7005364,15,57,72,18,6,6,Eden Terrace,174,4.0
350,4,3.0,"2/32 Gills Road Bucklands Beach, Auckland",450.0,1280000,-36.889838700000006,174.91784769999998,7006891,39,12,18,21,33,30,Bucklands Beach,150,3.0
351,3,2.0,"2/29 Carlisle Road Torbay, Auckland",140.0,900000,-36.709942299999994,174.740653,7002059,36,33,33,30,30,51,Torbay,207,3.0
352,4,2.0,"15 Markham Place Bucklands Beach, Auckland",974.0,1380000,-36.859434,174.90194440000002,7006767,33,12,9,21,30,30,Bucklands Beach,138,6.0
353,3,2.0,"Lot 2/166 Ennis Avenue Pakuranga, Auckland",178.0,1195000,-36.9193537,174.8890656,7008816,75,39,51,30,27,33,Pakuranga Heights,258,6.0
354,3,2.0,"86 Holly Street Avondale, Auckland",1077.0,1025000,-36.887128499999996,174.69160290000002,7004332,33,30,24,27,12,18,Avondale,147,7.0
355,4,1.0,"94A Holly Street, Auckland",550.0,850000,-36.8874761,174.6913819,7004332,33,30,24,27,12,18,Avondale,147,7.0
356,4,3.0,"200 Ridge Road Howick, Auckland",417.0,1260000,-36.9002271,174.9206737,7006919,30,15,12,15,18,57,Howick,147,6.0
357,3,1.0,"2/14 Ruth Street Manurewa, Auckland",80.0,500000,-37.0172609,174.88889269999999,7009658,78,90,48,24,24,30,Manurewa,291,9.0
358,5,4.0,"364 Pinecrest Drive Gulf Harbour, Auckland",1047.0,3000000,-36.6246261,174.80340859999998,7001722,27,18,27,12,9,33,Gulf Harbour,129,1.0
359,4,2.0,"79a Atkin Avenue Mission Bay, Auckland",576.0,1900000,-36.855118100000006,174.82824440000002,7006174,39,15,27,33,18,42,Mission Bay,171,2.0
360,3,1.0,"95 Keegan Drive Massey, Auckland",335.0,540000,-36.8444566,174.6231946,7003825,57,24,24,30,15,12,Massey,165,10.0
361,3,1.0,"5/108 Station Road Papatoetoe, Auckland",80.0,480000,-36.973832,174.8415098,7008409,63,39,39,21,15,12,Papatoetoe,189,9.0
362,3,1.0,"3/85a Tidal Road Mangere, Auckland",70.0,490000,-36.9799062,174.8256274,7008227,60,30,27,21,12,27,Mangere,177,10.0
363,4,1.0,"40 Harlston Road Mount Albert, Auckland",129.0,1775000,-36.8950614,174.71025649999999,7004514,33,21,15,27,15,21,Mount Albert,126,3.0
364,3,1.0,"1/31 Thomas Road Mangere, Auckland",80.0,500000,-36.9733379,174.7957699,7008037,96,27,39,33,27,24,Mangere,249,9.0
365,3,1.0,"21 Fairmount Road Titirangi, Auckland",495.0,690000,-36.919883899999995,174.66132109999998,7007316,24,6,24,15,6,15,Titirangi,105,5.0
366,4,2.0,"142 Hill Road The Gardens, Auckland",848.0,890000,-37.01195560000001,174.9131413,7009845,45,39,24,21,36,27,Manurewa,195,4.0
367,2,1.0,"5/103 Hinemoa Street Birkenhead, Auckland",90.0,630000,-36.8170459,174.7326281,7004846,24,18,15,15,30,30,Birkenhead,135,2.0
368,3,1.0,"25/955 Mount Eden Road Three Kings, Auckland",86.0,490000,-36.9018811,174.75893530000002,7005469,9,21,15,18,3,42,Three Kings,111,7.0
369,4,4.0,"48 Kings Road Three Kings, Auckland",697.0,1425000,-36.8988174,174.74959219999997,7005232,24,33,27,15,12,9,Mount Roskill,117,7.0
370,5,5.0,"50 Braemar Road Rothesay Bay, Auckland",415.0,2300000,-36.725024700000006,174.7481043,7002080,48,39,24,30,33,27,Rothesay Bay,198,2.0
371,3,1.0,"1/112 New Windsor Road New Windsor, Auckland",73.0,650000,-36.9028184,174.709662,7004527,45,30,30,21,21,24,New Windsor,168,7.0
372,3,1.0,"2/28 Gloucester Road Manurewa, Auckland",90.0,495000,-37.0155102,174.87758159999998,7009543,66,45,27,12,27,30,Manurewa,198,10.0
373,5,4.0,"17 Greenbank Drive St Johns, Auckland",740.0,2625000,-36.8754184,174.8349235,7006333,45,24,6,33,27,39,Saint Johns,171,1.0
374,5,2.0,"25 Seymour Avenue Papatoetoe, Auckland",809.0,1100000,-36.96529879999999,174.85797340000002,7008515,78,63,60,27,30,48,Papatoetoe,306,7.0
375,5,3.0,"20 Clive Road Epsom, Auckland",1310.0,3900000,-36.8735266,174.7670636,7005561,90,33,12,15,27,45,Epsom,219,2.0
376,4,3.0,"1b Roby Street Te Atatu Peninsula, Auckland",303.0,1160000,-36.83828270000001,174.65450969999998,7004216,39,12,24,24,12,24,Te Atatu Peninsula,138,7.0
377,3,1.0,"31 Hereford Street Te Atatu Peninsula, Auckland",675.0,980000,-36.8384958,174.65464369999998,7004216,39,12,24,24,12,24,Te Atatu Peninsula,138,7.0
378,4,2.0,"6 Mansion Court West Harbour, Auckland",502.0,1150000,-36.81402620000001,174.6412919,7002280,60,36,18,36,42,36,West Harbour,213,1.0
379,3,1.0,"3a Mclennan Road Mount Wellington, Auckland",80.0,580000,-36.9273044,174.8495935,7008448,57,45,33,21,18,21,Mount Wellington,195,10.0
380,3,1.0,"6a Dennis Road Papatoetoe, Auckland",353.0,1450000,-36.9773939,174.87510680000003,7008765,33,39,21,12,21,3,Papatoetoe,135,10.0
381,5,3.0,"10 Paripari Street Flat Bush, Auckland",325.0,660000,-36.98017120000001,174.9361137,7009314,21,18,9,15,6,6,Flat Bush,78,7.0
382,7,5.0,"17 Golden Avenue Flat Bush, Auckland",398.0,700000,-36.9766548,174.9241208,7009314,21,18,9,15,6,6,Flat Bush,78,7.0
383,7,5.0,"7 Ballinabreen Road Flat Bush, Auckland",428.0,1475000,-36.9806461,174.9295512,7009314,21,18,9,15,6,6,Flat Bush,78,7.0
384,5,4.0,"27 Paripari Street Flat Bush, Auckland",325.0,660000,-36.9794367,174.9359015,7009314,21,18,9,15,6,6,Flat Bush,78,7.0
385,5,4.0,"28 Matahae Drive Flat Bush, Auckland",325.0,660000,-36.979867299999995,174.935215,7009314,21,18,9,15,6,6,Flat Bush,78,7.0
386,4,2.0,"1/12 Shera Road Remuera, Auckland",180.0,1625000,-36.873373,174.79337560000002,7005832,57,27,15,18,30,27,Remuera,180,4.0
387,5,3.0,"46 St Marys Road St Marys Bay, Auckland",632.0,4650000,-36.845758200000006,174.745697,7005079,30,15,24,36,39,51,Saint Marys Bay,198,2.0
388,3,1.0,"3 Midgley Road West Harbour, Auckland",383.0,750000,-36.8200841,174.6256524,7003775,69,21,42,18,9,6,West Harbour,162,8.0
389,3,2.0,"67 Middleton Road Remuera, Auckland",391.0,2125000,-36.868233000000004,174.7830276,7005719,24,24,18,18,24,12,Remuera,123,1.0
390,3,2.0,"309 Victoria Street West Pukekohe, Auckland",314.0,280000,-37.2066601,174.88451919999997,7010468,87,60,81,45,39,42,Pukekohe,345,5.0
391,4,2.0,"7 Tamatea Drive Snells Beach, Auckland",556.0,740000,-36.414085799999995,174.7242024,7001328,57,15,27,33,30,105,Snells Beach,261,5.0
392,3,2.0,"17 Matangi Terrace Snells Beach, Auckland",810.0,810000,-36.4148331,174.7238749,7001328,57,15,27,33,30,105,Snells Beach,261,5.0
393,6,3.0,"89 Pacific Parade Army Bay, Auckland",852.0,1325000,-36.6026993,174.802068,7001700,45,15,24,33,39,54,Army Bay,210,1.0
394,3,1.0,"28 Te Arawa Street Orakei, Auckland",141.0,1300000,-36.8531726,174.82464330000002,7006154,27,24,24,15,18,24,Orakei,135,5.0
395,4,1.0,"26 Donzella Place Conifer Grove, Auckland",808.0,840000,-37.049152500000005,174.9108138,7009903,33,15,12,15,21,33,Conifer Grove,132,3.0
396,5,3.0,"26a Vanessa Crescent Glendowie, Auckland",1148.0,4000000,-36.8685549,174.8798402,7006673,45,15,9,27,21,45,Glendowie,165,2.0
397,3,2.0,"42a Elizabeth Street Tuakau, Auckland",985.0,1425000,-37.2612474,174.93893880000002,7010984,30,12,15,18,15,27,Tuakau,117,5.0
398,4,2.0,"4 Rees Way Tuakau, Auckland",433.0,670000,-37.262183,174.9402622,7010984,30,12,15,18,15,27,Tuakau,117,5.0
399,4,3.0,"21 Michaels Avenue Ellerslie, Auckland",628.0,1650000,-36.8958961,174.82036530000002,7006127,39,27,27,30,15,12,Ellerslie,147,5.0
400,4,2.0,"37 Cheriton Road Mellons Bay, Auckland",809.0,1425000,-36.8871669,174.92818369999998,7006939,39,15,15,18,33,45,Mellons Bay,159,3.0
401,3,1.0,"9 Dublin Street Pukekohe, Auckland",392.0,530000,-37.1970898,174.90051730000002,7010357,45,27,33,15,24,39,Pukekohe,180,9.0
402,5,4.0,"73b Shore Road Remuera, Auckland",1272.0,4300000,-36.8648621,174.7985754,7005821,39,18,12,18,30,30,Remuera,150,4.0
403,4,3.0,"6 Keiha Crescent Massey, Auckland",408.0,920000,-36.8281956,174.6150304,7003619,84,51,69,60,36,39,Massey,333,2.0
404,2,2.0,"806/39-47 Union Street Auckland Central, Auckland",80.0,700000,-36.8516708,174.7560052,7005291,57,270,138,30,15,18,Auckland Central,522,8.0
405,2,2.0,"908/39-47 Union Street Auckland Central, Auckland",80.0,430000,-36.8516708,174.7560052,7005291,57,270,138,30,15,18,Auckland Central,522,8.0
406,4,1.0,"51 Ashgrove Road Mangere, Auckland",969.0,670000,-36.970082,174.80525580000003,7008126,42,27,12,12,12,9,Mangere,114,10.0
407,4,2.0,"4 Korama Lane New Lynn, Auckland",101.0,900000,-36.904331799999994,174.68384419999998,7004358,33,60,45,24,27,36,New Lynn,225,8.0
408,4,2.0,"14 Korama Lane New Lynn, Auckland",122.0,920000,-36.904331799999994,174.68384419999998,7004358,33,60,45,24,27,36,New Lynn,225,8.0
409,4,2.0,"8 Korama Lane New Lynn, Auckland",176.0,940000,-36.904331799999994,174.68384419999998,7004358,33,60,45,24,27,36,New Lynn,225,8.0
410,4,2.0,"10 Korama Lane New Lynn, Auckland",101.0,900000,-36.904331799999994,174.68384419999998,7004358,33,60,45,24,27,36,New Lynn,225,8.0
411,4,2.0,"9c Tomes Lane Favona, Auckland",405.0,500000,-36.9530178,174.813736,7008092,72,27,15,24,18,6,Favona,162,9.0
412,3,2.0,"6/71 Kolmar Road Papatoetoe, Auckland",108.0,1000000,-36.974782,174.8565882,7008640,63,72,42,30,21,48,Papatoetoe,279,7.0
413,7,2.0,"43-45 Walters Road Takanini, Auckland",2410.0,600000,-37.049080100000005,174.93472769999997,7010037,54,42,33,21,15,24,Takanini,192,9.0
414,3,2.0,"118 Reihana Street Orakei, Auckland",89.0,2075000,-36.8604806,174.8216994,7006043,36,24,27,18,27,39,Orakei,171,10.0
415,3,2.0,"118 Reihana Street Orakei, Auckland",89.0,2075000,-36.8604806,174.8216994,7006043,36,24,27,18,27,39,Orakei,171,10.0
416,4,2.0,"54 Beach Road Mellons Bay, Auckland",943.0,1790000,-36.8899244,174.9359161,7006986,54,18,15,33,24,39,Mellons Bay,186,2.0
417,3,1.0,"3/22 Mainston Road Remuera, Auckland",685.0,1260000,-36.8829671,174.81212240000002,7006096,48,24,24,39,27,27,Remuera,195,4.0
418,4,2.0,"16a Mainston Road Remuera, Auckland",214.0,1360000,-36.8832505,174.811194,7006096,48,24,24,39,27,27,Remuera,195,4.0
419,3,1.0,"12 Kaiwaka Road Waiuku, Auckland",1445.0,640000,-37.257248,174.7348917,7010436,54,15,21,24,24,36,Waiuku,171,7.0
420,6,3.0,"39 Hilltop Road Flat Bush, Auckland",622.0,1150000,-36.9865073,174.9049914,7008990,60,45,42,33,24,18,Flat Bush,213,7.0
421,5,4.0,"15 Lammermoore Drive St Heliers, Auckland",1998.0,7000000,-36.863985,174.8519671,7006417,51,27,9,21,42,51,St Heliers,192,1.0
422,5,4.0,"35 Lammermoor Drive St Heliers, Auckland",818.0,3600000,-36.862909,174.85108369999998,7006417,51,27,9,21,42,51,St Heliers,192,1.0
423,4,3.0,"Lot 2/10 Whitmore Road Mount Roskill, Auckland",399.0,1175000,-36.9257759,174.74583940000002,7007739,66,57,63,24,33,54,Mount Roskill,297,8.0
424,8,4.0,"30 Florence Daly Place, Auckland",990.0,1250000,-36.926492100000004,174.74812980000002,7007739,66,57,63,24,33,54,Mount Roskill,297,8.0
425,5,3.0,"671 Richardson Road, Auckland",842.0,1125000,-36.9254157,174.7467049,7007739,66,57,63,24,33,54,Mount Roskill,297,8.0
426,3,1.0,"55 Rathgar Road Henderson, Auckland",875.0,835000,-36.867483299999996,174.62131069999998,7003862,54,30,27,27,15,21,Henderson,183,9.0
427,3,1.0,"61a Wairiki Road Mount Eden, Auckland",406.0,1450000,-36.8895914,174.7520841,7005203,36,27,21,27,12,24,Mount Eden,150,4.0
428,3,2.0,"3/69 St Stephens Avenue Parnell, Auckland",187.0,2750000,-36.855511299999996,174.78838090000002,7005662,42,24,27,27,21,57,Parnell,195,1.0
429,3,2.0,"16a O'halloran Road Howick, Auckland",402.0,1050000,-36.893851700000006,174.92262019999998,7006905,21,18,3,15,15,24,Howick,96,3.0
430,2,1.0,"1/10 Grantham Road Papatoetoe, Auckland",71.0,560000,-36.9795206,174.87921210000002,7008768,33,21,21,18,12,21,Papatoetoe,126,8.0
431,4,1.0,"62 Kivell Close Mangere, Auckland",690.0,650000,-36.964788899999995,174.8096399,7008118,69,15,27,30,15,12,Mangere East,168,10.0
432,3,1.0,"4 Atkinson Avenue Papatoetoe, Auckland",825.0,765000,-36.992290600000004,174.858979,7009405,30,30,12,12,3,6,Papatoetoe,105,8.0
433,4,1.0,"16 Ririno Place Manurewa, Auckland",818.0,550000,-37.028742,174.8752312,7009580,84,39,33,27,21,24,Manurewa,222,10.0
434,3,1.0,"5a Clarice Place Takanini, Auckland",90.0,490000,-37.037966100000006,174.9289185,7010014,75,36,24,30,24,24,Takanini,225,10.0
435,3,1.0,"34 Beaubank Road Kelston, Auckland",842.0,830000,-36.8972398,174.6707393,7004279,54,24,24,27,33,24,Kelston,183,6.0
436,4,2.0,"1102 Whangaparaoa Road Tindalls Beach, Auckland",761.0,1575000,-36.618976,174.7738847,7001676,30,6,15,12,18,30,Tindalls Beach,111,4.0
437,2,1.0,"1102a Whangaparaoa Road Tindalls Beach, Auckland",755.0,960000,-36.618976,174.7738847,7001676,30,6,15,12,18,30,Tindalls Beach,111,4.0
438,3,1.0,"680 Great North Road Grey Lynn, Auckland",602.0,1550000,-36.864796999999996,174.73345890000002,7004943,21,54,33,21,15,24,Grey Lynn,174,7.0
439,3,1.0,"36 Japonica Drive Beach Haven, Auckland",658.0,695000,-36.7950265,174.69399840000003,7002434,48,15,12,18,15,9,Beach Haven,117,8.0
440,5,2.0,"8 Meyrick Place Meadowbank, Auckland",880.0,1875000,-36.8703363,174.8294094,7006191,21,9,12,15,18,27,Meadowbank,102,1.0
441,4,3.0,"7-9 Glen Atkinson Street St Heliers, Auckland",1750.0,6500000,-36.8661752,174.84977959999998,7006420,42,21,12,21,39,39,St Heliers,174,1.0
442,4,3.0,"43 Glen Atkinson Street, Auckland",1531.0,3550000,-36.86712120000001,174.8476095,7006420,42,21,12,21,39,39,St Heliers,174,1.0
443,3,1.0,"13 Wordsworth Road Manurewa, Auckland",675.0,540000,-37.0267161,174.88453619999999,7009670,72,36,24,18,15,18,Manurewa,177,10.0
444,2,1.0,"10 Bay Road Palm Beach, Auckland",921.0,920000,-36.784985799999994,175.0462789,7003374,30,15,9,24,15,30,Ostend,123,7.0
445,4,4.0,"251 Harbourside Drive Karaka, Auckland",567.0,1750000,-37.062185,174.9214206,7009990,33,12,15,21,18,30,Karaka,129,1.0
446,4,2.0,"117 Celtic Crescent Ellerslie, Auckland",607.0,1300000,-36.888343400000004,174.8198618,7006114,42,12,36,24,12,33,Ellerslie,153,3.0
447,4,1.0,"22 Pigeon Mountain Road Half Moon Bay, Auckland",1014.0,2550000,-36.8851289,174.9011172,7006814,54,9,18,30,36,51,Half Moon Bay,201,4.0
448,4,3.0,"69 Prince Regent Drive Half Moon Bay, Auckland",734.0,1350000,-36.8891292,174.89535880000003,7006723,51,21,18,30,21,21,Half Moon Bay,162,5.0
449,5,4.0,"10 Mantis Lane Hobsonville, Auckland",336.0,545000,-36.801329100000004,174.666149,7002304,33,30,24,15,12,18,Hobsonville,135,4.0
450,5,3.0,"2a Landette Road Manurewa, Auckland",244.0,2325000,-37.0310912,174.8725122,7009582,90,33,24,21,21,3,Manurewa,192,10.0
451,4,2.0,"532 Chapel Road East Tamaki, Auckland",594.0,1100000,-36.939972,174.9131935,7009039,33,18,15,27,12,21,East Tamaki,126,4.0
452,4,2.0,"90 Aroha Avenue Sandringham, Auckland",784.0,1825000,-36.8785526,174.736405,7004975,27,66,72,30,12,18,Sandringham,228,3.0
453,5,3.0,"27 Margaret Road Papatoetoe, Auckland",202.0,1450000,-36.988448999999996,174.84477080000002,7009388,63,39,36,9,15,6,Papatoetoe,168,10.0
454,4,2.0,"18a Manawa Road Remuera, Auckland",469.0,1725000,-36.8678378,174.80235969999998,7005966,45,30,15,24,21,27,Remuera,168,2.0
455,3,1.0,"18 Serrita Avenue Sunnyhills, Auckland",690.0,1150000,-36.89801,174.89069540000003,7006699,45,12,15,33,12,15,Sunnyhills,135,3.0
456,3,2.0,"A1/27-29 Towai Street St Heliers, Auckland",238.0,2450000,-36.8570908,174.8502488,7006413,36,18,9,21,27,66,St Heliers,174,3.0
457,3,2.0,"47 Milano Boulevard Karaka, Auckland",1191.0,2100000,-37.065132899999995,174.9140949,7009923,30,18,18,21,27,30,Karaka,147,1.0
458,4,3.0,"69 Milano Boulevard Karaka, Auckland",572.0,1550000,-37.06610560000001,174.91237180000002,7009923,30,18,18,21,27,30,Karaka,147,1.0
459,2,1.0,"2322 State Highway 16 Helensville, Auckland",5210.0,730000,-36.6792597,174.4379383,7001365,39,24,18,24,27,30,Helensville,162,4.0
460,4,2.0,"12 Williams Road Hobsonville, Auckland",450.0,1125000,-36.8005504,174.6451824,7002271,12,12,9,6,9,75,Hobsonville,129,7.0
461,4,2.0,"1/90 Maich Road Manurewa, Auckland",130.0,650000,-37.0144149,174.8894841,7009644,78,42,39,24,24,21,Manurewa,228,8.0
462,3,1.0,"1/662 East Coast Road Pinehill, Auckland",81.0,830000,-36.7285787,174.73024640000003,7002686,36,36,33,27,27,30,Pinehill,183,5.0
463,2,1.0,"1a Rewiti Street Orakei, Auckland",84.0,1060000,-36.8551765,174.81299669999999,7005958,15,27,12,6,30,27,Orakei,120,3.0
464,4,2.0,"1 Kingsgate Place Dannemora, Auckland",417.0,1325000,-36.922951700000006,174.92284850000001,7009157,15,9,15,3,15,483,Dannemora,534,6.0
465,3,1.0,"7 Portrush Lane Takanini, Auckland",361.0,600000,-37.0383231,174.916708,7009911,51,36,24,18,6,18,Takanini,150,7.0
466,4,2.0,"318 Sea View Road Onetangi, Auckland",5175.0,2300000,-36.7827438,175.0620241,7003376,39,21,15,30,24,60,Ostend,189,1.0
467,5,2.0,"13b Maioro Street New Windsor, Auckland",174.0,1090000,-36.907443900000004,174.7156062,7004673,36,36,27,12,15,27,New Windsor,147,8.0
468,6,4.0,"460 Union Road Pukekohe, Auckland",465.0,2075000,-37.201272700000004,174.8158397,7010456,42,15,18,27,21,33,Mauku,150,5.0
469,3,1.0,"2/6 Woodside Road Manurewa, Auckland",110.0,530000,-37.0254779,174.899302,7009794,54,33,27,27,12,12,Manurewa,162,10.0
470,5,3.0,"1 Kumar Place The Gardens, Auckland",589.0,1130000,-37.008384899999996,174.9171628,7009942,48,36,27,21,27,24,The Gardens,183,3.0
471,4,2.0,"200b Old Titirangi Road Titirangi, Auckland",451.0,835000,-36.9209739,174.6637504,7007315,42,21,21,24,21,21,Titirangi,150,6.0
472,6,3.0,"21 Mull Place Wattle Downs, Auckland",1265.0,1690000,-37.0491615,174.89424590000002,7009717,42,21,18,15,12,42,Wattle Downs,150,5.0
473,3,1.0,"12 Talavera Place Te Atatu South, Auckland",100.0,612000,-36.8807816,174.6550089,7004150,48,24,39,21,24,33,Te Atatu South,189,9.0
474,5,3.0,"25 Cunliffe Place Glenfield, Auckland",1405.0,1100000,-36.776875700000005,174.717903,7002619,54,54,42,21,27,30,Glenfield,231,3.0
475,2,1.0,"1/68 Ireland Road Panmure, Auckland",70.0,510000,-36.907872999999995,174.8431008,7008326,36,42,36,30,12,15,Mount Wellington,180,3.0
476,5,3.0,"92a East Tamaki Road Papatoetoe, Auckland",536.0,980000,-36.9657304,174.864446,7008619,45,24,30,15,18,6,Papatoetoe,141,8.0
477,5,2.0,"28 Entrican Avenue Remuera, Auckland",819.0,3075000,-36.8794045,174.80698280000001,7005989,30,9,6,24,24,18,Remuera,114,1.0
478,4,2.0,"8 Springtide Place Red Beach, Auckland",612.0,1000000,-36.608833399999995,174.6836301,7001514,48,3,12,33,15,24,Red Beach,132,1.0
479,5,4.0,"16 Kilcooley Road Flat Bush, Auckland",354.0,1275000,-36.967034399999996,174.9359253,7009309,108,63,93,63,30,51,Flat Bush,408,1.0
480,2,1.0,"3/15 Nihill Crescent Mission Bay, Auckland",85.0,740000,-36.8520455,174.8302353,7006171,18,18,9,15,18,36,Mission Bay,111,3.0
481,4,4.0,"10 Codrington Crescent Mission Bay, Auckland",827.0,5300000,-36.853008700000004,174.8295425,7006171,18,18,9,15,18,36,Mission Bay,111,3.0
482,5,3.0,"19 Takitimu Street Orakei, Auckland",479.0,2550000,-36.85383220000001,174.82258969999998,7006159,54,18,15,15,21,27,Orakei,156,9.0
483,4,3.0,"42 Marua Road Ellerslie, Auckland",277.0,1725000,-36.8898532,174.81645880000002,7006118,48,33,48,30,18,27,Ellerslie,204,3.0
484,4,3.0,"3c The Rise St Heliers, Auckland",543.0,3500000,-36.8462688,174.86509880000003,7006474,66,18,30,33,39,45,St Heliers,228,1.0
485,3,2.0,"4 Springcombe Road, Auckland",449.0,3100000,-36.8463819,174.8625265,7006474,66,18,30,33,39,45,St Heliers,228,1.0
486,1,1.0,"2/37 Mahia Road Manurewa, Auckland",70.0,445000,-37.0391848,174.8809426,7009597,120,42,42,27,27,33,Weymouth,291,10.0
487,2,2.0,"1164 Huia Road Huia, Auckland",809.0,750000,-37.0030833,174.573895,7007109,84,21,45,54,51,60,Huia,321,4.0
488,3,2.0,"22a Puriri Avenue Greenlane, Auckland",130.0,1575000,-36.89294,174.79404269999998,7005883,57,30,30,30,33,21,Greenlane,207,4.0
489,4,2.0,"537 Hillsborough Road Mount Roskill, Auckland",1055.0,1500000,-36.9278156,174.7295621,7007629,51,33,27,27,21,39,Mount Roskill,201,5.0
490,4,2.0,"112 Albany Heights Albany, Auckland",11759.0,1700000,-36.7114221,174.68332719999998,7001807,18,9,9,9,21,15,Albany Heights,84,2.0
491,2,2.0,"30 Bel Air Drive Hillsborough, Auckland",1051.0,1275000,-36.919146500000004,174.7643573,7007771,24,33,24,15,21,15,Hillsborough,132,4.0
492,4,1.0,"7 Tiari Place Mangere, Auckland",566.0,660000,-36.972631799999995,174.82683169999999,7008296,78,39,33,27,30,21,Mangere East,228,8.0
493,3,1.0,"362 Blockhouse Bay Road Blockhouse Bay, Auckland",919.0,640000,-36.9117146,174.7022303,7007517,48,42,33,27,36,39,Blockhouse Bay,213,4.0
494,4,3.0,"26d Roseville Street New Windsor, Auckland",150.0,999000,-36.904061799999994,174.71738180000003,7004665,27,27,21,18,24,12,New Windsor,141,7.0
495,4,2.0,"26c Roseville Street New Windsor, Auckland",150.0,999000,-36.904061799999994,174.71738180000003,7004665,27,27,21,18,24,12,New Windsor,141,7.0
496,3,1.0,"236 Kaiaraara Bay Road Great Barrier Island, Auckland",5638.0,580000,-36.177654700000005,175.3590697,7001130,39,9,18,24,24,42,Great Barrier Island (Aotea Island),153,9.0
497,3,2.0,"91c East Tamaki Road Papatoetoe, Auckland",373.0,820000,-36.9671685,174.8649469,7008620,45,30,27,21,18,15,Papatoetoe,165,9.0
498,4,4.0,"201a St Andrews Road Epsom, Auckland",603.0,3700000,-36.902012400000004,174.76128559999998,7005467,36,15,6,21,18,30,Epsom,135,1.0
499,5,2.0,"22 Landscape Road, Auckland",1203.0,660000,-36.9005066,174.7601404,7005467,36,15,6,21,18,30,Mount Eden,135,1.0
500,3,3.0,"209D St Andrews Road, Auckland",541.0,1600000,-36.9017294,174.76061819999998,7005467,36,15,6,21,18,30,Epsom,135,1.0
501,4,2.0,"4 Ross Place Opaheke, Auckland",718.0,850000,-37.0756141,174.9473467,7010134,54,18,24,33,30,51,Opaheke,210,6.0
502,6,4.0,"21 Armadale Road Remuera, Auckland",1284.0,4400000,-36.883145500000005,174.7933358,7005859,30,30,3,15,15,18,Remuera,108,6.0
503,2,2.0,"8 Tawa Street Oneroa, Auckland",1232.0,1850000,-36.786035299999995,175.0185042,7003344,21,9,12,21,18,48,Oneroa,126,4.0
504,4,3.0,"24 Aldred Road Remuera, Auckland",928.0,3550000,-36.873779799999994,174.7963636,7005837,66,12,3,33,45,36,Remuera,198,1.0
505,3,1.0,"1/57 Kelvin Road Papakura, Auckland",90.0,540000,-37.0637794,174.9590698,7010192,81,48,45,27,30,27,Papakura,261,9.0
506,4,2.0,"21 Silkwood Grove Totara Heights, Auckland",872.0,900000,-36.9978874,174.9029335,7009748,45,36,24,24,39,42,Totara Heights,207,3.0
507,4,2.0,"19 Roadley Avenue Sunnyhills, Auckland",782.0,1550000,-36.900187200000005,174.8813948,7006690,42,12,12,27,27,27,Sunnyhills,159,2.0
508,4,3.0,"11 Fort Lincoln Loop Karaka, Auckland",309.0,920000,-37.0817356,174.902696,7009834,21,0,6,21,12,15,Karaka,75,5.0
509,5,3.0,"1 Tuangi Street Long Bay, Auckland",480.0,1500000,-36.6902805,174.7422363,7002020,57,24,36,30,30,24,Long Bay,198,2.0
510,5,3.0,"9 Tuangi Street Long Bay, Auckland",465.0,1450000,-36.6903871,174.7420748,7002020,57,24,36,30,30,24,Long Bay,198,2.0
511,5,4.0,"9 Ngaio Street Orakei, Auckland",488.0,610000,-36.8591469,174.81405619999998,7006054,24,15,18,18,18,33,Orakei,126,6.0
512,1,1.0,"108 Hill Road Palm Beach, Auckland",4737.0,710000,-36.7852451,175.04199219999998,7003365,27,9,18,18,24,48,Palm Beach,144,6.0
513,3,1.0,"34 Regent Street Papatoetoe, Auckland",1464.0,1175000,-36.9798783,174.8691556,7008659,51,39,30,21,21,30,Papatoetoe,195,8.0
514,4,2.0,"24 Lemonwood Place The Gardens, Auckland",1019.0,1000000,-37.0098989,174.9140007,7009843,45,27,21,21,42,42,The Gardens,189,3.0
515,4,2.0,"25 Kuripaka Crescent The Gardens, Auckland",771.0,1030000,-37.0094625,174.9125187,7009843,45,27,21,21,42,42,The Gardens,189,3.0
516,3,2.0,"7 Phoenix Place Papatoetoe, Auckland",874.0,840000,-36.97466970000001,174.83922130000002,7008422,39,30,30,9,9,9,Papatoetoe,120,9.0
517,4,2.0,"15 Gulf Harbour Drive Gulf Harbour, Auckland",1061.0,1025000,-36.6100686,174.78517490000002,7001688,45,12,15,27,30,51,Gulf Harbour,171,2.0
518,3,2.0,"4 Portobello Place Torbay, Auckland",985.0,1125000,-36.6990528,174.72989740000003,7001939,51,36,24,42,30,18,Torbay,201,3.0
519,5,3.0,"93 Popes Road Takanini, Auckland",20226.0,2975000,-37.02897279999999,174.9313296,7010010,51,24,21,18,27,30,Takanini,174,9.0
520,3,1.0,"42 Clifton Road Herne Bay, Auckland",1292.0,5200000,-36.8455501,174.7296588,7004702,45,9,12,33,30,24,Herne Bay,159,2.0
521,4,2.0,"35 Sunnyside Road Sunnyvale, Auckland",2861.0,1250000,-36.8978289,174.63568130000002,7004025,42,33,27,21,15,15,Sunnyvale,147,7.0
522,2,1.0,"10/10 Gerard Way St Johns, Auckland",104.0,800000,-36.8748599,174.83010890000003,7006208,12,12,9,9,12,90,Saint Johns,150,1.0
523,3,2.0,"64 Wattle Farm Road Wattle Downs, Auckland",619.0,860000,-37.0439703,174.8906819,7009712,27,6,15,15,9,30,Wattle Downs,99,2.0
524,3,1.0,"4/38 Hall Avenue Otahuhu, Auckland",70.0,475000,-36.945907299999995,174.8425462,7008371,57,36,39,27,30,39,Otahuhu,225,10.0
525,3,2.0,"3 Maynard Place Mangere Bridge, Auckland",905.0,1175000,-36.945839,174.77864069999998,7007832,42,21,33,27,21,36,Mangere Bridge,189,4.0
526,3,2.0,"192 Orakei Road Remuera, Auckland",238.0,3375000,-36.8682435,174.80536919999997,7005964,27,15,3,12,24,30,Remuera,105,5.0
527,5,4.0,"Lot 1/78 Mahia Road Manurewa, Auckland",274.0,1050000,-37.03813579999999,174.888505,7009698,102,24,27,21,9,15,Wattle Downs,201,10.0
528,3,2.0,"93 Beaumonts Way Manurewa, Auckland",714.0,640000,-37.0284281,174.9010774,7009799,36,36,24,18,9,21,Manurewa,138,9.0
529,3,2.0,"93 Beaumonts Way Manurewa, Auckland",714.0,640000,-37.0284281,174.9010774,7009799,36,36,24,18,9,21,Manurewa,138,9.0
530,3,1.0,"51 Beaumonts Way Manurewa, Auckland",675.0,580000,-37.0278558,174.9005844,7009799,36,36,24,18,9,21,Manurewa,138,9.0
531,3,1.0,"4 Anson Place St Johns, Auckland",607.0,1060000,-36.8746381,174.8487666,7006443,51,30,45,30,21,27,Saint Johns,189,7.0
532,6,3.0,"60 Tironui Road Takanini, Auckland",515.0,810000,-37.053133,174.9336381,7010041,84,45,21,21,21,33,Takanini,231,10.0
533,5,3.0,"68a John Walker Drive Manurewa, Auckland",208.0,350000,-37.0312948,174.8722419,7009479,69,30,24,15,18,9,Manurewa,156,10.0
534,4,2.0,"54 Godden Crescent Mission Bay, Auckland",382.0,2450000,-36.8587355,174.8300794,7006179,36,15,12,15,30,27,Mission Bay,132,1.0
535,3,1.0,"2/87a Woodglen Road Glen Eden, Auckland",100.0,640000,-36.9163925,174.64256630000003,7007193,60,24,33,30,21,12,Glen Eden,177,9.0
536,3,1.0,"23 Edinburgh Street Tuakau, Auckland",245.0,690000,-37.265020899999996,174.9412405,7010987,75,30,21,18,9,9,Tuakau,162,10.0
537,3,1.0,"2/22 Sturdee Road Manurewa, Auckland",80.0,510000,-37.0140865,174.88496919999997,7009645,54,33,24,15,21,21,Manurewa,162,8.0
538,5,3.0,"736a Remuera Road Remuera, Auckland",575.0,2575000,-36.8782757,174.8215358,7006083,39,18,27,21,21,33,Remuera,162,1.0
539,5,3.0,"12b Waiatarua Road Remuera, Auckland",698.0,2100000,-36.8778505,174.82160480000002,7006083,39,18,27,21,21,33,Remuera,162,1.0
540,4,3.0,"4 Brownlee Place Pukekohe, Auckland",555.0,800000,-37.1911305,174.9089261,7010523,63,27,36,21,18,12,Pukekohe,183,5.0
541,3,1.0,"4 St James Avenue Helensville, Auckland",600.0,680000,-36.6858441,174.45112360000002,7001747,69,24,30,30,21,60,Helensville,240,6.0
542,3,1.0,"74 Frank Grey Place Otahuhu, Auckland",139.0,600000,-36.941888299999995,174.8549182,7008472,57,24,21,15,27,30,Otahuhu,177,10.0
543,5,3.0,"23 Quedley Court Bucklands Beach, Auckland",750.0,3430000,-36.8768054,174.9147934,7006879,48,30,9,27,39,24,Eastern Beach,171,4.0
544,5,2.0,"31 Selbourne Street Grey Lynn, Auckland",490.0,2325000,-36.8624487,174.73665730000002,7004924,57,24,36,33,18,24,Grey Lynn,201,5.0
545,4,2.0,"52 Polo Prince Drive Alfriston, Auckland",6024.0,1575000,-37.0061204,174.92768080000002,7009943,24,15,21,9,24,21,Totara Park,117,2.0
546,5,3.0,"3 Chilton Place Mellons Bay, Auckland",825.0,2475000,-36.8914695,174.92512380000002,7006948,39,18,15,12,36,39,Howick,159,3.0
547,3,1.0,"30 Koromiko Street New Lynn, Auckland",451.0,760000,-36.900358600000004,174.67315990000003,7004283,39,36,30,24,24,33,New Lynn,183,8.0
548,4,2.0,"17 Mcinnes Road Weymouth, Auckland",845.0,670000,-37.0493626,174.8609495,7009527,60,21,30,9,18,27,Weymouth,162,10.0
549,4,3.0,"44a Bassett Road Remuera, Auckland",1199.0,3275000,-36.872032899999994,174.7847161,7005726,36,18,6,15,24,30,Remuera,132,1.0
550,4,2.0,"6 Kesteven Avenue Glendowie, Auckland",181.0,2100000,-36.8590278,174.8653767,7006500,42,12,12,24,24,15,Glendowie,129,2.0
551,4,3.0,"1/53 Disraeli Street Epsom, Auckland",162.0,1600000,-36.8867384,174.76580269999997,7005433,54,54,21,30,27,39,Epsom,231,3.0
552,4,3.0,"23 Admiralty Rise Gulf Harbour, Auckland",773.0,400000,-36.608358200000005,174.7873188,7001687,39,21,15,27,27,39,Gulf Harbour,162,3.0
553,5,3.0,"23 Redvale Rise Albany, Auckland",8573.0,1725000,-36.6816528,174.6953589,7001813,51,27,12,30,45,30,Redvale,201,2.0
554,4,2.0,"21b Kahia Lane Dairy Flat, Auckland",4000.0,2275000,-36.6864257,174.69043330000002,7001813,51,27,12,30,45,30,Redvale,201,2.0
555,3,2.0,"974 Kahikatea Flat Road Waitoki, Auckland",954.0,1075000,-36.6348536,174.5530938,7001392,42,33,24,27,27,30,Waitoki,183,1.0
556,5,3.0,"67 Sapwood Crescent Takanini, Auckland",345.0,480000,-37.0426903,174.9515273,7010094,12,9,3,6,3,3,Takanini,39,6.0
557,4,3.0,"3 Black Beech Crescent Takanini, Auckland",385.0,790000,-37.04132429999999,174.9495094,7010094,12,9,3,6,3,3,Takanini,39,6.0
558,2,1.0,"38 Hamon Avenue Mount Roskill, Auckland",754.0,1300000,-36.902073,174.75079250000002,7005243,57,33,39,24,15,18,Mount Roskill,186,10.0
559,2,2.0,"46d Tohunga Crescent Parnell, Auckland",598.0,2100000,-36.858635,174.78779740000002,7005665,27,24,9,12,21,36,Parnell,135,5.0
560,4,2.0,"13 Taihiki Road Clarks Beach, Auckland",792.0,780000,-37.13667120000001,174.6983814,7010292,42,9,21,18,21,51,Clarks Beach,159,5.0
561,2,2.0,"20 Kennedy Point Road Surfdale, Auckland",959.0,1700000,-36.809948799999994,175.0220949,7003348,21,3,9,18,18,45,Surfdale,117,1.0
562,3,1.0,"70 Kiwi Esplanade Mangere Bridge, Auckland",756.0,1845000,-36.9412992,174.7691481,7007834,24,6,6,12,18,39,Mangere Bridge,102,4.0
563,5,3.0,"2 Seventh View Avenue Beachlands, Auckland",750.0,1250000,-36.8888495,174.9983924,7007052,126,51,66,72,42,48,Beachlands,402,1.0
564,1,1.0,"3 Miami Avenue Surfdale, Auckland",809.0,740000,-36.793135299999996,175.02600680000003,7003359,36,27,15,24,33,45,Surfdale,183,8.0
565,2,1.0,"1a Lannan Road Surfdale, Auckland",1421.0,860000,-36.789125899999995,175.02286030000002,7003357,33,18,27,15,30,39,Surfdale,165,4.0
566,3,2.0,"10 Goudie Road Helensville, Auckland",22240.0,1075000,-36.688849600000005,174.3881961,7001262,45,12,15,27,27,39,Helensville,165,3.0
567,4,2.0,"27 Scotts Road Manurewa, Auckland",809.0,680000,-37.0233245,174.9085721,7009888,57,30,18,18,18,15,Manurewa East,156,10.0
569,5,3.0,"349 Blind Bay Road Great Barrier Island, Auckland",3953.0,920000,-36.25789520000001,175.4364476,7001131,27,6,6,18,39,60,Great Barrier Island (Aotea Island),156,9.0
570,3,2.0,"5b Charlenne Close Ranui, Auckland",291.0,700000,-36.869014299999996,174.6066264,7003568,84,51,45,36,30,36,Ranui,279,7.0
571,4,1.0,"37a Earlsworth Road Mangere, Auckland",343.0,630000,-36.9673457,174.83407869999996,7008270,75,51,39,24,30,27,Mangere East,246,9.0
572,5,6.0,"259 St Heliers Bay Road St Heliers, Auckland",2268.0,6600000,-36.863925099999996,174.8532993,7006423,39,18,15,21,39,30,St Heliers,165,1.0
573,4,3.0,"35b Park Road Glenfield, Auckland",400.0,450000,-36.7912775,174.71894319999998,7002649,60,30,33,36,15,27,Glenfield,210,4.0
574,3,2.0,"Lot 3/16 Romney Place Manurewa, Auckland",200.0,570000,-37.019332,174.8739419,7009554,66,33,33,24,21,21,Manurewa,198,10.0
575,3,1.0,"22 Ivon Road Otara, Auckland",739.0,540000,-36.9655974,174.8862086,7008860,69,45,30,24,15,30,Otara,219,9.0
576,2,1.0,"3/1 Plunket Avenue Papatoetoe, Auckland",61.0,480000,-36.987429299999995,174.8611939,7009439,39,30,30,18,24,15,Papatoetoe,159,8.0
577,4,3.0,"300a Kohimarama Road Kohimarama, Auckland",601.0,1850000,-36.8643558,174.8439233,7006309,63,24,27,42,39,42,St Heliers,240,2.0
578,3,2.0,"29 Marau Crescent Mission Bay, Auckland",171.0,2250000,-36.8493717,174.8326149,7006272,18,12,9,9,21,51,Mission Bay,117,1.0
579,5,3.0,"31 Marau Crescent Mission Bay, Auckland",283.0,2600000,-36.8493109,174.8328969,7006272,18,12,9,9,21,51,Mission Bay,117,1.0
580,5,3.0,"Dairy Flat  Rodney  0794 Dairy Flat, Auckland",323.0,2100000,-36.6664831,174.6389587,7001769,39,21,18,30,24,30,Dairy Flat,162,3.0
581,4,3.0,"11 Musson Drive Waiheke Island, Auckland",240.0,1975000,-36.811543799999995,175.0832685,7003389,30,9,18,27,39,42,Waiheke Island,168,4.0
582,4,5.0,"379a Gordons Road Waiheke Island, Auckland",641.0,6400000,-36.8290569,175.0742834,7003389,30,9,18,27,39,42,Waiheke Island,168,4.0
583,2,1.0,"22 Ridge Road Oneroa, Auckland",922.0,960000,-36.7854027,175.0075094,7003340,39,18,33,30,48,63,Oneroa,234,6.0
584,3,1.0,"12 Roseman Avenue Mount Roskill, Auckland",792.0,1105000,-36.913748999999996,174.7353069,7007657,63,42,30,21,24,24,Mount Roskill,207,10.0
585,5,2.0,"55 Edgewater Parade Waiuku, Auckland",679.0,690000,-37.2437086,174.7273132,7010407,36,15,21,21,21,36,Waiuku,150,5.0
586,2,1.0,"4/166 Puhinui Road Papatoetoe, Auckland",67.0,530000,-36.9878469,174.8600802,7009438,36,27,24,15,21,12,Papatoetoe,135,8.0
587,4,1.0,"24 Bates Road Papakura, Auckland",1222.0,610000,-37.0675883,174.9563647,7010200,81,30,12,18,18,9,Papakura,171,10.0
588,6,3.0,"28 Westerley Place Long Bay, Auckland",708.0,1625000,-36.691770700000006,174.74277450000002,7001930,78,48,54,39,36,45,Long Bay,297,3.0
589,4,2.0,"Lot 2/44 Earlsworth Road Mangere, Auckland",313.0,1325000,-36.9676691,174.8347424,7008271,87,39,54,33,30,30,Mangere East,273,9.0
590,7,3.0,"70 Waldorf Crescent Orewa, Auckland",1276.0,2100000,-36.580704,174.6770554,7001431,42,30,9,24,30,42,Orewa,177,2.0
591,6,4.0,"410 Pukapuka Road Mahurangi, Auckland",607.0,6200000,-36.4745734,174.69341519999998,7001299,27,15,15,21,27,33,Pohuehue,135,5.0
592,2,2.0,"Parnell  Auckland City  1052 Parnell, Auckland",598.0,2025000,-36.8590062,174.7829378,7005692,18,21,24,15,15,27,Parnell,126,4.0
593,6,4.0,"64 Okura River Road Okura, Auckland",384.0,5700000,-36.67639929999999,174.7214825,7001866,15,6,12,3,15,6,Okura,60,2.0
594,3,1.0,"Lot 2/80 Reelick Avenue Pakuranga, Auckland",570.0,1950000,-36.9158546,174.89576530000002,7006765,42,15,27,21,15,27,Pakuranga Heights,147,3.0
595,5,3.0,"15a Wilmay Avenue Papatoetoe, Auckland",252.0,930000,-36.97586389999999,174.8577844,7008548,30,60,24,12,12,18,Papatoetoe,156,6.0
596,3,3.0,"9a Luplau Crescent Cockle Bay, Auckland",1024.0,1300000,-36.8954544,174.93952990000003,7006998,36,9,12,18,21,36,Cockle Bay,135,4.0
597,1,1.0,"841 Beach Road Browns Bay, Auckland",675.0,970000,-36.710444700000004,174.7455523,7002061,27,27,21,15,42,60,Browns Bay,195,4.0
598,4,2.0,"109 Luckens Road West Harbour, Auckland",726.0,1100000,-36.8204815,174.6343895,7003913,57,27,27,18,21,18,West Harbour,171,7.0
599,4,2.0,"143 Annett Road Kumeu, Auckland",244.0,1625000,-36.801925,174.49926159999998,7002160,48,12,12,24,39,30,Kumeu,162,4.0
600,3,1.0,"3a Farrelly Avenue Mount Roskill, Auckland",100.0,880000,-36.902310799999995,174.72873140000002,7004832,36,30,15,12,24,12,Wesley,123,10.0
601,3,1.0,"777 Sandringham Rd Extension, Auckland",961.0,1725000,-36.9016281,174.7299846,7004832,36,30,15,12,24,12,Wesley,123,10.0
602,4,3.0,"34 Cliff Road Torbay, Auckland",1265.0,4110000,-36.693217499999996,174.7575555,7002104,30,24,12,18,36,54,Torbay,174,1.0
603,2,1.0,"81 Goodall Street Hillsborough, Auckland",1738.0,1400000,-36.928577399999995,174.7582314,7007781,45,21,18,18,27,36,Hillsborough,165,2.0
604,3,2.0,"29a Combes Road Remuera, Auckland",236.0,1550000,-36.873544200000005,174.801453,7005847,27,33,24,18,27,18,Remuera,156,3.0
605,3,2.0,"64a Christmas Road Manurewa, Auckland",260.0,610000,-37.0300709,174.8998782,7009802,60,48,33,27,21,18,Manurewa,216,9.0
606,3,1.0,"28 Frank Street Oneroa, Auckland",1151.0,920000,-36.785718200000005,175.0278159,7003353,30,30,30,33,21,45,Oneroa,189,4.0
607,4,3.0,"Lot 4/2 Wyman Place Pakuranga, Auckland",163.0,645000,-36.9081354,174.8899885,7008790,54,36,33,18,18,15,Pakuranga Heights,174,5.0
608,3,2.0,"69 Wainui Road Silverdale, Auckland",532.0,1300000,-36.6150797,174.67503080000003,7001459,0,0,0,0,0,0,Silverdale,21,8.0
609,4,2.0,"122 Pulham Road Warkworth, Auckland",1513.0,890000,-36.409687,174.6729053,7001308,42,15,9,21,15,27,Warkworth,132,1.0
610,2,1.0,"114 Trig Hill Road Onetangi, Auckland",806.0,580000,-36.798819200000004,175.0872079,7003394,42,9,18,21,27,42,Onetangi,156,6.0
611,17,8.0,"Sandringham  Auckland City  1025 Sandringham, Auckland",1596.0,760000,-36.8836131,174.7388892,7004981,21,21,18,21,9,12,Sandringham,111,6.0
612,4,2.0,"5 Henderson Valley Road Henderson Valley, Auckland",1143.0,875000,-36.88003629999999,174.6284291,7003883,36,15,21,15,24,30,Henderson,132,9.0
613,5,3.0,"1/79 Russell Road Manurewa, Auckland",253.0,890000,-37.020952799999996,174.8830479,7009650,87,48,36,24,27,15,Manurewa,234,9.0
614,2,1.0,"5/80 Awaroa Road Sunnyvale, Auckland",70.0,815000,-36.8960262,174.6410939,7004018,57,36,39,21,24,24,Sunnyvale,204,8.0
615,4,3.0,"9 Toru Street Te Atatu Peninsula, Auckland",812.0,1484100,-36.85290139999999,174.6487203,7004092,42,24,24,21,18,9,Te Atatu Peninsula,138,7.0
616,8,4.0,"145 Bombay Road Bombay, Auckland",2362.0,1825000,-37.1861371,174.9915621,7010377,51,9,18,36,27,42,Bombay,183,1.0
617,1,1.0,"14a Kea Place Mangere Bridge, Auckland",449.0,570000,-36.949429200000004,174.7751889,7007849,45,18,21,24,24,39,Mangere Bridge,165,6.0
618,4,4.0,"14b Kea Place Mangere Bridge, Auckland",460.0,1325000,-36.949429200000004,174.7751889,7007849,45,18,21,24,24,39,Mangere Bridge,165,6.0
619,4,2.0,"Lot 1/71a () Russell Road Manurewa, Auckland",466.0,1975000,-37.021203,174.8829829,7009561,69,39,45,33,21,39,Manurewa,252,9.0
620,2,1.0,"32a Fairlands Avenue Waterview, Auckland",105.0,990000,-36.883895,174.6970967,7004381,39,42,30,24,21,21,Waterview,180,4.0
621,4,1.0,"9 Peace Avenue Mount Wellington, Auckland",1088.0,810000,-36.9268505,174.8554719,7008455,42,30,15,21,15,27,Mount Wellington,153,10.0
622,3,2.0,"19 Tawa Road Te Atatu Peninsula, Auckland",170.0,670000,-36.8276749,174.64436469999998,7004043,60,33,33,30,30,30,Te Atatu Peninsula,219,5.0
623,3,1.0,"6 Portage Road Papatoetoe, Auckland",1012.0,820000,-36.9706356,174.84338400000001,7008406,102,63,36,18,21,21,Papatoetoe,255,9.0
624,4,1.0,"2 Reding Street Takanini, Auckland",948.0,740000,-37.038321100000005,174.9206959,7009969,78,51,42,18,18,15,Takanini,219,9.0
625,4,3.0,"3/13 Trimmer Terrace Papatoetoe, Auckland",178.0,770000,-36.9708905,174.8513235,7008524,33,27,18,15,18,12,Papatoetoe,129,7.0
626,4,2.0,"165 Mill Road Bombay, Auckland",230.0,2050000,-37.1925446,174.9757129,7010369,45,21,12,21,39,21,Bombay,153,2.0
627,3,2.0,"25 Ocean View Crescent Rakino Island, Auckland",1366.0,270000,-36.7195924,174.94956340000002,7001354,0,0,0,0,0,6,Rakino Island,27,6.0
628,2,1.0,"2/66 South Pacific Road Rakino Island, Auckland",40.0,3250000,-36.7196717,174.9515235,7001354,0,0,0,0,0,6,Rakino Island,27,6.0
629,3,2.0,"Lot 4 Hillcrest Heights Orewa, Auckland",184.0,920000,-36.5717005,174.6921667,7001471,45,27,12,39,42,57,Hatfields Beach,228,2.0
630,4,3.0,"Lot 10 Hillcrest Heights Orewa, Auckland",188.0,1275000,-36.572094,174.69151000000002,7001471,45,27,12,39,42,57,Hatfields Beach,228,2.0
631,5,1.0,"6 Regent  Street Papatoetoe, Auckland",1429.0,1355000,-36.9783779,174.87017790000002,7008654,54,36,33,21,12,24,Papatoetoe,180,8.0
632,3,2.0,"2/29 Jane Cowie Avenue Otahuhu, Auckland",57.0,530000,-36.956313200000004,174.8457959,7008385,66,42,39,15,12,12,Otahuhu,189,9.0
633,2,1.0,"94 Hunterville Road Orapiu, Auckland",1040.0,1080000,-36.8019237,175.1080146,7003396,24,3,6,12,27,27,Waiheke Island,111,5.0
634,4,3.0,"12 Royalty Rise Mt Eden, Auckland",343.0,830000,-36.60987670000001,174.7026638,7001550,48,15,15,27,27,69,Red Beach,195,2.0
635,5,2.0,"66 Sample Road Auckland Central, Auckland",11000.0,1080000,-36.8484597,174.7633315,7005277,15,63,36,6,12,0,Auckland Central,138,8.0
636,4,2.0,"18 Riserra Drive Ranui, Auckland",396.0,545000,-36.864999299999994,174.6118191,7003697,36,33,12,27,18,15,Ranui,144,9.0
637,6,3.0,"4 Puketaha Road Swanson, Auckland",809.0,910000,-36.8705171,174.55521930000003,7003433,33,24,24,18,36,15,Swanson,144,1.0
638,2,1.0,"4/66 Huia Road Papatoetoe, Auckland",70.0,500000,-36.970710700000005,174.86786519999998,7008631,15,30,21,9,18,15,Papatoetoe,111,9.0
639,6,4.0,"35 Eynsham Court Dannemora, Auckland",1201.0,2550000,-36.9303095,174.9267783,7009277,57,24,21,24,48,51,Dannemora,222,1.0
640,5,4.0,"Lot 238/30 Bearing Parade Long Bay, Auckland",450.0,1775000,-36.688455100000006,174.7460598,7002019,24,6,12,15,6,3,Long Bay,69,3.0
641,5,4.0,"19 Buckleys Track Paremoremo, Auckland",9107.0,2400000,-36.7700201,174.6594109,7001795,36,9,12,15,21,21,Paremoremo,120,2.0
642,2,1.0,"3 Matai Road Oneroa, Auckland",809.0,1120000,-36.7859279,175.0117572,7003343,27,18,30,24,12,21,Oneroa,126,3.0
643,5,3.0,"71a Russell Road (lot 3) Manurewa, Auckland",394.0,560000,-37.024879299999995,174.893116,7009785,30,24,12,24,18,39,Manurewa,144,9.0
644,4,3.0,"9 Cooperage Avenue Huapai, Auckland",493.0,500000,-36.772106,174.5442431,7002186,27,27,30,15,18,21,Huapai,138,4.0
645,5,3.0,"39a Victoria Avenue Remuera, Auckland",305.0,2350000,-36.8781069,174.7990534,7005849,54,9,9,33,27,75,Remuera,201,1.0
646,4,3.0,"33 Woodward Avenue Mangere Bridge, Auckland",342.0,1500000,-36.944577100000004,174.7855209,7007919,63,27,24,27,27,39,Mangere Bridge,207,6.0
647,5,3.0,"10 Nanleen Rise The Gardens, Auckland",411.0,500000,-37.0152994,174.9106502,7009853,33,18,27,18,24,39,Manurewa,165,3.0
648,5,3.0,"2 Nanleen Rise The Gardens, Auckland",491.0,520000,-37.0152994,174.9106502,7009853,33,18,27,18,24,39,Manurewa,165,3.0
649,2,1.0,"1a Anzac Road Orapiu, Auckland",1070.0,790000,-36.8423596,175.14598180000002,7003397,12,0,6,18,24,36,Waiheke Island,99,4.0
650,4,3.0,"9 Laingfield Terrace Laingholm, Auckland",4019.0,1320000,-36.9599266,174.62746769999998,7007159,48,12,12,27,27,30,Laingholm,159,2.0
651,4,1.0,"30 Girrahween Drive Totara Vale, Auckland",1115.0,1155000,-36.764640500000006,174.7228284,7002731,24,9,18,15,6,18,Totara Vale,99,3.0
652,5,4.0,"11 Millcroft Lane Ranui, Auckland",358.0,900000,-36.872083700000005,174.60459980000002,7003572,63,33,63,24,33,18,Ranui,234,5.0
653,6,2.0,"78 Helvetia Road Pukekohe, Auckland",741.0,620000,-37.1974973,174.88973430000001,7010481,57,36,15,18,6,18,Pukekohe,153,8.0
654,3,1.0,"1 Alaina Place Tuakau, Auckland",690.0,500000,-37.2593705,174.9463977,7011005,21,9,3,3,6,9,Tuakau,39,9.0
655,4,1.0,"2 Alaina Place Tuakau, Auckland",548.0,460000,-37.2593705,174.9463977,7011005,21,9,3,3,6,9,Tuakau,39,9.0
656,4,2.0,"16 Rodeo Drive Redvale, Auckland",10000.0,1875000,-36.6849893,174.7068034,7001835,39,15,18,21,21,15,Redvale,126,2.0
657,6,5.0,"47 Island View Drive Gulf Harbour, Auckland",1083.0,2900000,-36.6159283,174.8048677,7001717,54,18,12,27,33,39,Gulf Harbour,177,2.0
658,2,1.0,"235 Ocean View Road Oneroa, Auckland",3488.0,650000,-36.7864177,175.0220042,7003342,24,24,21,39,27,39,Oneroa,180,5.0
659,2,2.0,"27 Hekerua Road Oneroa, Auckland",1161.0,1200000,-36.7846297,175.0256175,7003342,24,24,21,39,27,39,Oneroa,180,5.0
660,5,3.0,"8 Bougainvillaea Terrace Manukau, Auckland",560.0,980000,-36.996419,174.900078,7009739,27,36,15,15,30,33,Goodwood Heights,162,5.0
661,6,4.0,"1 Michael Bosher Way Flat Bush, Auckland",5024.0,2350000,-36.9856753,174.9475179,7009346,90,42,27,45,75,45,Flat Bush,321,2.0
662,3,1.0,"358 Mangawhai Road Wellsford, Auckland",15550.0,550000,-36.2287416,174.5458102,7001139,48,30,21,21,33,45,Wellsford,195,5.0
663,4,3.0,"Lot 2/31 Bolton Street Blockhouse Bay, Auckland",327.0,2200000,-36.9184693,174.6983382,7007478,39,33,24,24,33,63,Blockhouse Bay,219,3.0
664,3,2.0,"4 Trimaran Drive Gulf Harbour, Auckland",151.0,510000,-36.61762879999999,174.7935301,7001696,72,21,30,60,33,45,Gulf Harbour,258,3.0
665,2,1.0,"604/19 Anzac Avenue Auckland Central, Auckland",56.0,460000,-36.8462653,174.7712726,7005510,24,96,51,18,18,27,Auckland Central,234,7.0
666,3,2.0,"17 Kanuka Road Hobsonville, Auckland",259.0,920000,-36.7937824,174.6609445,7002295,45,24,48,15,6,12,Hobsonville,147,2.0
667,5,3.0,"13 Kaurimu Rise Titirangi, Auckland",985.0,1430000,-36.9321759,174.64532580000002,7007268,51,15,27,27,24,24,Titirangi,177,3.0
668,5,3.0,"66 Moyrus Crescent East Tamaki, Auckland",804.0,2000000,-36.9393167,174.9237217,7009186,168,66,72,69,90,84,East Tamaki Heights,543,1.0
669,4,2.0,"5 Piccolo Court Kumeu, Auckland",400.0,860000,-36.7633771,174.5496311,7002191,54,21,24,30,24,36,Kumeu,189,3.0
670,3,1.0,"47 Simkin Avenue St Johns, Auckland",696.0,980000,-36.874750299999995,174.8437367,7006325,45,51,33,27,24,36,Saint Johns,210,8.0
671,4,3.0,"54a Codrington Crescent Mission Bay, Auckland",1459.0,3175000,-36.85577429999999,174.83238469999998,7006173,39,15,12,18,21,36,Mission Bay,147,1.0
672,5,3.0,"45 Taunton Terrace Blockhouse Bay, Auckland",305.0,2025000,-36.9316491,174.6961315,7007500,33,18,24,15,21,39,Blockhouse Bay,153,5.0
673,3,2.0,"30b Rangiatea Road Epsom, Auckland",142.0,1550000,-36.8949982,174.7707909,7005621,48,30,27,33,27,21,Epsom,192,4.0
674,4,3.0,"33 Bayvista Drive Karaka, Auckland",741.0,1700000,-37.083594,174.91935159999997,7010004,102,33,54,60,48,36,Karaka,333,1.0
675,5,3.0,"28 Bayvista Drive Karaka, Auckland",553.0,1425000,-37.083399299999996,174.920226,7010004,102,33,54,60,48,36,Karaka,333,1.0
676,2,1.0,"2/12 Blueridge Close Sunnyvale, Auckland",70.0,505000,-36.89307279999999,174.63626090000002,7004016,60,30,33,24,21,39,Sunnyvale,201,9.0
677,3,1.0,"434 Porchester Road Randwick Park, Auckland",859.0,560000,-37.026097,174.92365700000002,7009960,108,48,54,30,27,48,Randwick Park,309,9.0
678,3,2.0,"2/183 Jervois Road Herne Bay, Auckland",195.0,1825000,-36.8459057,174.7333068,7004875,15,21,27,24,27,66,Herne Bay,174,3.0
679,4,3.0,"7a Auckland Road St Heliers, Auckland",305.0,2850000,-36.8517202,174.8523981,7006411,30,15,15,18,27,75,St Heliers,174,3.0
680,4,2.0,"2 Totara Haeata Lane Flat Bush, Auckland",155.0,3375000,-36.983582500000004,174.9092662,7009103,99,84,90,30,18,18,Flat Bush,336,6.0
681,4,2.0,"8 Totara Haeata Lane Flat Bush, Auckland",183.0,810000,-36.983582500000004,174.9092662,7009103,99,84,90,30,18,18,Flat Bush,336,6.0
682,2,1.0,"65 Glen Brook Road Omiha, Auckland",830.0,850000,-36.8154295,175.0615949,7003383,42,15,21,33,36,60,Omiha,216,7.0
683,4,2.0,"21 Gavinike Place Waimauku, Auckland",1507.0,1200000,-36.7715362,174.4831794,7002146,39,9,33,18,21,24,Waimauku,141,1.0
684,4,2.0,"3/23 Waiatarua Road Remuera, Auckland",194.0,1425000,-36.8754454,174.8215719,7006074,78,15,24,51,27,21,Remuera,207,2.0
685,4,2.0,"19 Mataoho Lane Mangere, Auckland",505.0,790000,-36.964149600000006,174.8227791,7008184,165,60,66,45,39,39,Mangere East,420,10.0
686,4,2.0,"242 Jones Road Hunua, Auckland",213.0,1050000,-37.07142,175.03724259999998,7010278,39,15,18,24,33,21,Hunua,144,3.0
687,4,2.0,"116 Simmental Crescent Somerville, Auckland",619.0,1325000,-36.9172991,174.93491219999999,7009262,30,12,15,15,15,33,Somerville,120,2.0
688,4,2.0,"3 Bledisloe Street Cockle Bay, Auckland",822.0,970000,-36.905038,174.9367021,7007012,60,18,27,33,9,15,Cockle Bay,168,2.0
689,4,2.0,"72a Anzac Road Pukekohe, Auckland",505.0,980000,-37.2216763,174.8968726,7010517,51,21,27,24,30,54,Pukekohe,204,4.0
690,3,2.0,"17 Old Wairoa Road Papakura, Auckland",350.0,710000,-37.05657,174.94405759999998,7010105,63,24,42,18,21,33,Papakura,201,8.0
691,5,3.0,"102b Mellons Bay Road Mellons Bay, Auckland",751.0,2100000,-36.8878635,174.93162780000003,7006938,54,21,18,33,36,42,Mellons Bay,207,2.0
692,4,2.0,"18b Vardon Road Green Bay, Auckland",542.0,1175000,-36.932101200000005,174.68015659999998,7007452,42,15,15,21,21,27,Green Bay,144,6.0
693,7,2.0,"12 Waima Street Grey Lynn, Auckland",357.0,1120000,-36.8635176,174.7506549,7005119,15,48,45,9,9,12,Grey Lynn,141,4.0
694,4,3.0,"12 Monmouth Street, Auckland",334.0,1700000,-36.862700200000006,174.7505971,7005119,15,48,45,9,9,12,Grey Lynn,141,4.0
695,5,4.0,"58a Reelick Avenue Pakuranga, Auckland",376.0,1800000,-36.915095,174.8971716,7006764,51,24,30,27,9,33,Pakuranga Heights,174,7.0
696,5,3.0,"5/48 Mays Road Onehunga, Auckland",287.0,1175000,-36.9170093,174.79789230000003,7007984,30,15,21,9,15,15,Onehunga,108,9.0
697,5,2.0,"4/48 Mays Road, Auckland",292.0,1175000,-36.9170093,174.79789230000003,7007984,30,15,21,9,15,15,Onehunga,108,9.0
698,3,2.0,"8 Rostrevor Avenue Epsom, Auckland",121.0,1600000,-36.903153,174.7682399,7005476,30,18,9,24,18,18,Epsom,123,5.0
699,3,1.0,"105 Waitakere Road Waitakere, Auckland",911.0,960000,-36.8527977,174.54429869999998,7003424,78,39,33,45,24,12,Waitakere,231,4.0
700,4,1.0,"158 Wordsworth Road Manurewa, Auckland",607.0,570000,-37.0246359,174.8718344,7009576,78,30,24,24,21,21,Manurewa,198,10.0
701,4,2.0,"64a Haseler Crescent Mellons Bay, Auckland",800.0,1550000,-36.886546200000005,174.9237292,7006896,54,27,18,21,54,54,Howick,231,4.0
702,3,1.0,"192 Kitchener Road Pukekohe, Auckland",1095.0,860000,-37.2182453,174.895161,7010516,33,18,18,21,33,39,Pukekohe,171,3.0
703,5,2.0,"13 Tampin Road Hill Park, Auckland",900.0,840000,-37.0117347,174.89435980000002,7009765,60,36,39,24,30,18,Manurewa,207,8.0
704,5,4.0,"43 Riverlea Avenue Pakuranga, Auckland",1298.0,2750000,-36.9079754,174.8636067,7006614,45,15,27,24,30,72,Pakuranga,213,2.0
705,4,2.0,"13 Siena Place Te Atatu Peninsula, Auckland",509.0,1080000,-36.8443017,174.6548741,7004212,27,15,24,21,27,24,Te Atatu Peninsula,144,3.0
706,3,2.0,"3/28 Ireland Road Panmure, Auckland",604.0,1000000,-36.900176,174.8490858,7006464,24,39,24,12,12,27,Mount Wellington,141,7.0
707,3,2.0,"41 Sanremo Lane Stanmore Bay, Auckland",347.0,770000,-36.633540100000005,174.7350362,7001648,24,24,12,30,27,27,Stanmore Bay,156,7.0
708,2,2.0,"21a Madill Street Tuakau, Auckland",362.0,580000,-37.260459399999995,174.9502378,7011006,69,18,33,30,24,45,Tuakau,213,10.0
709,3,2.0,"125 Charles Prevost Drive The Gardens, Auckland",752.0,890000,-37.0037766,174.9192676,7009935,63,21,21,45,36,57,The Gardens,246,1.0
710,4,3.0,"160 Hutchinson Avenue New Lynn, Auckland",362.0,1105000,-36.921209399999995,174.673548,7007379,36,30,36,24,24,24,New Lynn,171,4.0
711,2,1.0,"8b Budgen Street Mount Roskill, Auckland",73.0,620000,-36.9237379,174.7333768,7007621,24,36,15,24,18,21,Mount Roskill,138,6.0
712,3,1.0,"13 La Perouse Street Botany Downs, Auckland",713.0,940000,-36.907574,174.9217784,7009119,78,39,27,48,45,39,Botany Downs,282,5.0
713,2,1.0,"403/17 Putney Way Manukau, Auckland",43.0,380000,-36.9930125,174.87844990000002,7008786,21,39,36,24,21,24,Manukau,168,8.0
714,2,1.0,"605/17 Putney Way Manukau, Auckland",45.0,385000,-36.9930125,174.87844990000002,7008786,21,39,36,24,21,24,Manukau,168,8.0
715,5,2.0,"22 Pinedale Place Henderson, Auckland",665.0,880000,-36.8687518,174.62545749999998,7003863,54,33,30,27,30,39,Henderson,210,9.0
716,2,1.0,"81 Maungarei Road Remuera, Auckland",221.0,840000,-36.885465,174.816169,7006100,39,24,27,27,18,39,Remuera,174,5.0
717,8,5.0,"125 Thomas Road Flat Bush, Auckland",378.0,1360000,-36.985085999999995,174.91392380000002,7009108,18,18,12,15,18,18,Flat Bush,99,6.0
718,5,3.0,"23 Onemana Way Te Atatu Peninsula, Auckland",664.0,1790000,-36.838611900000004,174.66054630000002,7004208,33,18,15,9,24,27,Te Atatu Peninsula,120,3.0
719,4,2.0,"28a Hoskins Avenue Hillsborough, Auckland",906.0,1125000,-36.929367600000006,174.7568343,7007737,30,18,12,24,21,12,Hillsborough,129,2.0
720,3,2.0,"11a Dell Avenue Remuera, Auckland",397.0,1875000,-36.8712071,174.8066445,7005976,42,15,21,24,33,36,Remuera,180,2.0
721,3,1.0,"108 Riversdale Road Avondale, Auckland",470.0,725000,-36.895174600000004,174.6804551,7004343,66,42,39,36,18,21,Avondale,225,8.0
722,3,2.0,"10 Davington Way Burswood, Auckland",562.0,1025000,-36.922313700000004,174.8937192,7008926,63,51,57,39,45,78,Burswood,336,4.0
723,5,3.0,"129 Point View Drive East Tamaki, Auckland",5340.0,1875000,-36.9455156,174.92614790000002,7006957,45,27,21,24,24,39,East Tamaki Heights,186,3.0
724,5,3.0,"19 Murrayfield Lane The Gardens, Auckland",507.0,910000,-37.011177200000006,174.91711980000002,7009944,60,24,33,27,21,18,Manurewa,186,3.0
725,4,2.0,"8 Murrayfield Lane The Gardens, Auckland",403.0,860000,-37.0107023,174.9174573,7009944,60,24,33,27,21,18,Manurewa,186,3.0
726,5,2.0,"3 Fishermans Cove Army Bay, Auckland",605.0,1150000,-36.6045094,174.7932875,7001682,45,24,18,33,27,48,Army Bay,189,3.0
727,4,3.0,"6 Deepak Lane Papatoetoe, Auckland",184.0,860000,-36.975556,174.836166,7008313,57,45,33,24,24,24,Papatoetoe,207,7.0
728,3,1.0,"22 Rivendell Place Warkworth, Auckland",714.0,770000,-36.401192200000004,174.6712341,7001301,6,12,6,9,12,72,Warkworth,120,8.0
729,3,1.0,"39a Goodwin Drive Rosehill, Auckland",492.0,600000,-37.083348799999996,174.9381973,7010086,54,27,27,30,12,21,Rosehill,174,9.0
730,2,1.0,"6/17 Waitangi Road Onehunga, Auckland",82.0,530000,-36.9133821,174.80134980000003,7008075,69,30,36,30,18,24,Onehunga,210,9.0
731,2,2.0,"8 Omanawa Lane Great Barrier Island, Auckland",8638.0,650000,-36.305955,175.4924245,7001135,30,21,21,21,39,69,Great Barrier Island (Aotea Island),201,9.0
732,3,2.0,"21 Denarius Lane Glendene, Auckland",352.0,570000,-36.8886106,174.6563372,7004225,33,24,27,18,15,18,Glendene,144,7.0
733,2,1.0,"9a/8 Quay Street Auckland Central, Auckland",91.0,680000,-36.8478196,174.78071359999998,7005655,78,204,177,45,15,12,Auckland Central,534,9.0
734,5,3.0,"117 Valley Road Pukekohe, Auckland",722.0,990000,-37.1867797,174.9166046,7010545,45,12,15,24,21,18,Pukekohe,141,7.0
